place_name,province,longitude,latitude,inscription_count,Pleiades_ID
"'Aqirah, Wadi al / El-Aghira",Africa proconsularis,12.816667,31.466667,1,
'Ayn Tubbi / Caf Tobbi,Africa proconsularis,13.0347222,32.1763889,1,
? / Musunii Regiani,Africa proconsularis,8.817943,35.02849,1,
? / Thugga,Africa proconsularis,9.2166414,36.4792418,1,
Abbeda,Africa proconsularis,,,2,
"Abd el-Mthir, Hr. / Abd Em Mthir / Sidi Mtir",Africa proconsularis,,,3,
"Abd el-Semed, Hr. / Abd es-Semed, Hr.",Africa proconsularis,,,2,
Abdallah Ben Amor,Africa proconsularis,,,1,
Abid,Africa proconsularis,9.367222,35.393889,1,
"Abid, Jebel / Gebel Abid / Habid, Hr.",Africa proconsularis,10.3603,36.2314,2,
Abu Kammash / Bu Chemmasc / Chemmakh / Chemech,Africa proconsularis,11.7363481,33.073808,4,
Abu Nujaym / Chol / Bu Njem / Bou-Ngem / Gholaia / Golas,Africa proconsularis,15.395789,30.581648,240,
"Ad Duwayrat / El-Duwayrat / Douirat, Hr. / Durat, Hr. / Ain Dourat / Uccula",Africa proconsularis,9.524142,36.767496,17,
"Afria, Hr. / Thugga",Africa proconsularis,9.2182835,36.4320389,6,
Afset el-Hassan,Africa proconsularis,,,3,
Agareb / Mechta el-Agareb,Africa proconsularis,10.5274227,34.7421003,1,
Ahmed Ben Ramdane,Africa proconsularis,,,1,
"Aimia, Hr.",Africa proconsularis,,,1,
Ain Amara,Africa proconsularis,,,3,
"Ain Azouza / Oued Soussa, Hr. / Thugga",Africa proconsularis,9.1456102,36.4368263,2,
"Ain Babouch, Hr. / Ain Babbouch / 'Ain Babouche / Faroha, Hr. / Mizigi",Africa proconsularis,9.350631,36.439552,16,
Ain Barchuch / Ain Barchouch,Africa proconsularis,,,2,
Ain Barouri,Africa proconsularis,,,1,
"Ain Batria / Batria, Hr. / Battaria / Bija / Biia / Bibae",Africa proconsularis,10.2552778,36.2691667,17,
Ain Behama,Africa proconsularis,,,1,
"Ain Beida, Hr.",Africa proconsularis,,,1,
Ain Berda,Africa proconsularis,7.5900995,36.6449172,1,
Ain Berouta,Africa proconsularis,,,1,
Ain Bou Diryas / Ayn Bu Diryas,Africa proconsularis,8.4833333,35.233333,10,
Ain Bou Hedja / Edja / Thugga,Africa proconsularis,9.1756757,36.3651035,4,
Ain Bou Sessou,Africa proconsularis,,,2,
Ain Chabrou,Africa proconsularis,,,3,
Ain Char,Africa proconsularis,,,1,
Ain Cherchouch,Africa proconsularis,,,6,
Ain Djal,Africa proconsularis,,,2,
Ain Djedied,Africa proconsularis,,,1,
"Ain Djelloula / Djellula, Hr.",Africa proconsularis,9.804772,35.799717,8,
"Ain Djenua, Hr.",Africa proconsularis,,,6,
"Ain Ehedia, Hr. / Ain Hadija",Africa proconsularis,,,2,
Ain Fodda,Africa proconsularis,,,1,
Ain Fourna / Ayn al-Furnah / Ain el-Souk / Ain-es-Souk / Furnos Maius,Africa proconsularis,9.582593,36.136476,32,
Ain Furnu / Furnu,Africa proconsularis,,,2,
"Ain Galiane, Hr.",Africa proconsularis,,,1,
Ain Garci / Garci,Africa proconsularis,10.2516005,36.1448523,1,
Ain Gassa,Africa proconsularis,10.2883333,35.7775,4,
Ain Ghar Salah / Thugga,Africa proconsularis,9.16299,36.3442444,12,
Ain Ghechil,Africa proconsularis,,,4,
"Ain Golea / Ain Gulea / el-Golea, Hr. / Djebel Golea / Thugga",Africa proconsularis,9.3292904,36.4848533,20,
Ain Gotnia / Thugga,Africa proconsularis,9.1976994,36.5033276,5,
Ain Guerca,Africa proconsularis,,,1,
Ain Guerchba,Africa proconsularis,,,2,
"Ain Hedja / Agbia / Bordj Brahim, iuxta (1) / Thugga",Africa proconsularis,9.2604318,36.4056886,3,
"Ain Hedja / Agbia / Bordj Brahim, iuxta (2) / Thugga",Africa proconsularis,9.2219879,36.3919251,1,
Ain Hedja / Bordj Brahim / Agbia / Thugga,Africa proconsularis,9.2311548,36.391328,47,
Ain Jannet / Totia,Africa proconsularis,9.6,36.1,4,
Ain Jelloula / Cululis,Africa proconsularis,,,1,
Ain Jezza / Djezza / Zezza / Aubuzza / Sibus,Africa proconsularis,8.598432,35.952388,44,
Ain Jouggar / Ain Jougar / Zucchar,Africa proconsularis,9.9444,36.255,1,
Ain Jour / Gor,Africa proconsularis,,,1,
"Ain Kedim, Hr.",Africa proconsularis,,,8,
Ain Kela Bou Seba / Ain Kela bu Seba,Africa proconsularis,,,9,
"Ain Laura / Laoura, Hr. / Rouijel, Hr.",Africa proconsularis,,,1,
Ain Lebha,Africa proconsularis,,,1,
Ain Maja,Africa proconsularis,,,3,
Ain Maker,Africa proconsularis,,,1,
"Ain Mansourah, Hr. / Manndra el Kedima, Hr. / Thugga",Africa proconsularis,9.3391982,36.5120958,3,
Ain Metouia / Simitthus,Africa proconsularis,,,2,
Ain Mezri,Africa proconsularis,,,1,
Ain Mouchnib,Africa proconsularis,,,1,
"Ain Moungas, Hr.",Africa proconsularis,,,2,
Ain Mragga,Africa proconsularis,,,2,
Ain Mzata,Africa proconsularis,,,3,
Ain Mziges / Ain Mzig'r,Africa proconsularis,,,1,
Ain Naggeur,Africa proconsularis,,,1,
Ain Nechma / Thabarbusis,Africa proconsularis,7.240989,37.054332,18,
Ain Ouassel / Ain Wassel / Thugga,Africa proconsularis,9.1225456,36.4405841,13,
Ain Rchine / Aradi / Calama,Africa proconsularis,9.674818,36.184719,6,
"Ain Rum, Hr.",Africa proconsularis,,,1,
Ain Saffra / Ain Sefra,Africa proconsularis,,,3,
Ain Saharidj / Djemaa Saharidj,Africa proconsularis,,,2,
Ain Said,Africa proconsularis,,,3,
Ain Sardouk / Bou Sardouk / Thugga,Africa proconsularis,9.3330155,36.4921091,2,
Ain Souda / Ain Suda,Africa proconsularis,,,2,
"Ain Tachegga / Tekhga, Hr. / Techga / Tchegga / Thizika",Africa proconsularis,9.680722,36.982897,14,
Ain Taga,Africa proconsularis,6.1808333,35.7441667,1,
Ain Tahamimine,Africa proconsularis,,,1,
Ain Tarf el-Schna / Ain Tarf esch Schna / Tarf ech-Chena / Apisa Maius,Africa proconsularis,,,5,
"Ain Tebournouk / Ain Tebornok, Hr. / Tubernuc",Africa proconsularis,10.4566916,36.5328206,28,
Ain Teffaha,Africa proconsularis,9.6,36.7,3,
Ain Toga,Africa proconsularis,,,1,
Ain Tounga / Thignica,Africa proconsularis,9.3576462,36.5226969,436,
"Ain Trab, Hr. / Thugga",Africa proconsularis,9.184551,36.3985045,1,
Ain Wif / Ayn Wif / Thenadassa,Africa proconsularis,13.366667,32.233333,7,
Ain Younes / Thugga,Africa proconsularis,9.3698119,36.4429592,150,
Ain Zakkar,Africa proconsularis,,,1,
Ain Zara / Ayn Zarah,Africa proconsularis,13.266667,32.816667,62,
Ain Zaza,Africa proconsularis,10.1344444,36.5491667,3,
Ain Zenata,Africa proconsularis,,,4,
Ain Zeradou,Africa proconsularis,,,12,
Ain Zeroug / Thugga,Africa proconsularis,9.1071868,36.4530892,1,
Ain Zerred,Africa proconsularis,8.3122222,36.3988889,1,
Ain Zerres / Ain Zeress,Africa proconsularis,,,2,
Ain Zillig / Thugga,Africa proconsularis,9.1868,36.386451,2,
"Ain Zouza, Hr. / Ain Zuza, Hr. / Cuttilula",Africa proconsularis,9.331699,35.970151,9,
Ain al Morra / Thugga,Africa proconsularis,9.222229,36.526609,1,
"Ain ben Abid / Ain el Abid / H'Rich, Hr. / Thugga",Africa proconsularis,9.1715434,36.4396238,7,
Ain el Fallous / Ain Flouss / Bordj Caid Mohamed Ben Sultane / Thugga,Africa proconsularis,9.140475,36.3985105,2,
Ain el Ma Lessoued / El-Ma el-Assoued,Africa proconsularis,8.2666667,35.25,2,
Ain el-Ansarine,Africa proconsularis,,,1,
Ain el-Aueinia / Auru,Africa proconsularis,12.4805556,31.9844444,12,
Ain el-Blate,Africa proconsularis,,,1,
Ain el-Djemala / Ain el-Djemela / Sustri,Africa proconsularis,,,2,
Ain el-Djour / Ayn al-Djour / Gori,Africa proconsularis,,,17,
Ain el-Durrig,Africa proconsularis,,,1,
Ain el-Hmadna / Ain el-Hamedna,Africa proconsularis,,,1,
Ain el-Hout / 'Ain el-Hout,Africa proconsularis,-1.3240277,34.931076,1,
"Ain el-Kouky / Ayn al-Kuki / Kuki, Hr.",Africa proconsularis,9.3833333,35.5333333,3,
Ain el-Kseiba,Africa proconsularis,8.85,35.75,5,
Ain el-Ouargi / Ain el-Ouarghi,Africa proconsularis,,,3,
Ain el-Ramoul / Thugga,Africa proconsularis,9.1401742,36.4260056,2,
"Ain el-Sbir, Hr.",Africa proconsularis,,,1,
Ain el-Toum / Ain et-Toum,Africa proconsularis,,,1,
"Ain en-Snab, Hr. / Ain Sneub / Thugga",Africa proconsularis,9.1315054,36.4215114,1,
"Ain en-Snab, Hr. / Ain Sneub, iuxta / Thugga",Africa proconsularis,9.1234586,36.4121675,1,
Aine el Asker / Rdir el-Soltan / Rdir-es-Soltan / Sutunurca,Africa proconsularis,9.9933221,36.5749807,13,
Akouda / Akkudah / Kalaa-Kebira / Gurza,Africa proconsularis,10.552288,35.8772601,7,
Al Huwariyah / El-Haouria / Haouria / El-Hauaria,Africa proconsularis,11.0117917,37.0534622,4,
Al Irq / El Erg,Africa proconsularis,8.183333,34.016667,1,
Al Masufiyin / El-Masufiyin,Africa proconsularis,12.991325,32.056144,1,
"Al Qaryah al Gharbiyah / el-Gheria, Hr.",Africa proconsularis,13.4142665,30.3888351,7,
Al Qusay'ah / Wadi Gsea / Marconi,Africa proconsularis,13.95,32.483333,4,
Al-Abyar / El-Abiar,Africa proconsularis,20.5945086,32.1896453,1,
Al-Brahama,Africa proconsularis,12.18333,31.93333,1,
Al-Hammah / El-Hamma / Aquae Tacapitanae,Africa proconsularis,9.794514,33.883611,4,
Al-Khums / Khoms / Homs / Lebdah / Lebida / Labdah / Wadi Zennad / Wadi az Zannad / Leptis Magna / Lepcis Magna / Neapolis,Africa proconsularis,14.26801,32.652183,922,344448
Al-Miknassi / Al Miknasi / Meknessi,Africa proconsularis,9.6063006,34.6100665,7,
"Alima, Hr.",Africa proconsularis,,,1,
Allalcha,Africa proconsularis,,,1,
Almansurin / Bordj Ali Mansur / Bou Rekba / Ad Mercurium?,Africa proconsularis,10.070786,36.765403,1,
Ameur,Africa proconsularis,10.1380488,36.8285071,1,
Amiraute,Africa proconsularis,3.0688397,36.78737,19,
"Annaba / Bone / Hippone, Ruines d' / Hippo Regius",Africa proconsularis,7.7549272,36.8982165,278,305090
"Anser, Hr.",Africa proconsularis,,,1,
"Antar, Wadi",Africa proconsularis,13.6167,31.2667,1,
"Aouine, Hr. / Aouin",Africa proconsularis,,,1,
Arbaa,Africa proconsularis,,,1,
Argoub el-Bania / Argoub / Thabarca / Tabarka / Thabraca,Africa proconsularis,8.758196,36.954975,275,
Argoub el-Mekesse / Thugga,Africa proconsularis,9.2598498,36.425169,2,
As Sars / Le Sers,Africa proconsularis,9.0211813,36.0774387,3,
Asadi,Africa proconsularis,10.45704,36.420272,1,
Asfour,Africa proconsularis,7.9760642,36.6728695,6,
Askur,Africa proconsularis,,,1,
"Atmen Zarnis, Hr. / Merouana, Hr.",Africa proconsularis,,,1,
Augemmi*,Africa proconsularis,,,1,
Aulodes / Sidi Rais / Sidi ar-Ra'is,Africa proconsularis,9.571439,36.823067,1,
Ayn Darahim / Ain Draham,Africa proconsularis,8.6879637,36.7775099,2,
Ayn Jalulah / Ain Djeloula,Africa proconsularis,9.8041245,35.7944487,4,
"Ayn Maabed / Ain Laabed, Hr. / El-Abed / Pagus Thunigabensis / Thunigaba",Africa proconsularis,9.2126795,36.873168,14,
Az-Zawiyah / El-Zawiyah,Africa proconsularis,12.7264789,32.7626409,2,
Azem / Azzem,Africa proconsularis,6.4722222,35.7544444,3,
Azzaba / Jemmapes,Africa proconsularis,7.1083637,36.7409382,4,
B'hairt Simindja,Africa proconsularis,,,9,
Badrouna,Africa proconsularis,,,2,
"Baghla, Hr. el / Thugga",Africa proconsularis,9.4168666,36.4768613,19,
"Baghla, Hr. el, iuxta (1) / Thugga",Africa proconsularis,9.4317426,36.4827935,1,
"Baghla, Hr. el, iuxta (2) / Thugga",Africa proconsularis,9.4028625,36.4709243,1,
Bahara,Africa proconsularis,,,1,
Bahran / Bordj Bahran / Inuca,Africa proconsularis,10.012412,36.728132,1,
Bani Hassan / Beni Hassan,Africa proconsularis,10.8084675,35.5673752,2,
Bani Waled / Bani Walid,Africa proconsularis,14.053676,31.7975831,2,
Bargou / Rab Silyanah,Africa proconsularis,9.5668097,36.0914159,1,
Barj M'Raou / Bordj M'Raou,Africa proconsularis,8.316667,36.283333,58,
"Baroud / el-Baroud, Hr. / Ammaedara",Africa proconsularis,,,3,
"Barusch, Hr.",Africa proconsularis,,,1,
"Barut, Hr.",Africa proconsularis,,,2,
"Barza, Hr. / Ain Tella / Ain el-Tell / Thugga",Africa proconsularis,9.3108055,36.379736,9,
"Batoum, Hr. / Battoum, Hr. / Thugga",Africa proconsularis,9.34676,36.52944,3,
"Baya, Hr.",Africa proconsularis,,,2,
"Bazzina, Hennchir",Africa proconsularis,7.9333,35.1833,2,
"Bechateur / Bechater / Bou Chater, Hr. / Sidi Mansour el-Daoud / Sidi Mansour ed-Daoud / Thisi",Africa proconsularis,9.74315266,37.306413,7,
Bechina,Africa proconsularis,,,1,
Bechri / Ksar Bechri,Africa proconsularis,8.7715241,33.7922442,2,
"Bedjar, Hr. / Vazari",Africa proconsularis,9.579189,36.872048,18,
Bedji / Thacia,Africa proconsularis,9.050218,36.30267,25,
"Behaia, Hr. / Biha Bilta",Africa proconsularis,9.58426,36.925886,7,
"Behir, Bi'r",Africa proconsularis,10.65,32.9666667,1,
"Beja / Bajah / Bedja / Ain Sabbah, Hr. / Ayn as-Sabbah / Vaga",Africa proconsularis,9.1814915,36.7270373,89,
Bekkaria / Theveste,Africa proconsularis,8.2407034,35.3746584,3,
Bel Amar,Africa proconsularis,,,8,
"Bel Khassem, Hr. / Thugga",Africa proconsularis,9.2400113,36.4066125,2,
Belab,Africa proconsularis,,,7,
Belalis Maior,Africa proconsularis,9.257906,36.764997,62,
"Belda, Hr. el",Africa proconsularis,8.9733,36.0339,7,
Belkacem-ben-Amar / Belkassem Ben Amar,Africa proconsularis,,,6,
Belli / Balli / Beled Belli,Africa proconsularis,10.5539603,36.569187,5,
"Ben Anes, Hr.",Africa proconsularis,,,1,
"Ben Auedi, Hr.",Africa proconsularis,,,1,
"Ben Chrifa, Hr.",Africa proconsularis,,,1,
"Ben Dreje, Hr.",Africa proconsularis,,,2,
"Ben Gasom Ben Nasser, Hr. / Ben Gassem Ben Nasser",Africa proconsularis,,,6,
Ben Ghilouf / Sidi Ben Kralouf / Sidi Ben Khelouf / Sidi Ben Ghalouf / Sidi Ben Rhelouf / Mengallou,Africa proconsularis,9.61916,33.88114,50,
"Ben Glaya, Hr. / Ben Glaia",Africa proconsularis,,,5,
"Ben Hassen, Hr. / Furc[]",Africa proconsularis,10.372778,36.541389,3,
"Ben Hdid, Hr. / Thugga",Africa proconsularis,9.3404249,36.5225194,3,
"Ben Ismail, Hr.",Africa proconsularis,9.237957,36.3991783,1,
"Ben Ismail, Hr. / Bou Ismail, Hr. / Thugga",Africa proconsularis,9.2327361,36.4068686,3,
"Ben Khelil, 'Ain",Africa proconsularis,6.2794444,35.0408333,10,
Ben M'hidi / Ben Mehidi / Morris,Africa proconsularis,7.9053142,36.7704579,2,
Ben Mansoura,Africa proconsularis,9.4794,35.8131,3,
Ben Messaoud,Africa proconsularis,,,1,
"Ben Mrad, Hr.",Africa proconsularis,8.504745,35.624885,2,
"Ben Ouaoua, Hr. / Thugga",Africa proconsularis,9.2419267,36.4201335,5,
"Ben Redjeb, Hr. / Berjeb, Hr. / Thugga",Africa proconsularis,9.2385774,36.4269392,6,
"Ben Sadun, Hr.",Africa proconsularis,,,1,
"Ben-Ergueia, Hr. / Er-Regaigue / Sustri",Africa proconsularis,9.29794,36.547633,13,
"Benaienni, Hr.",Africa proconsularis,,,1,
Benbla,Africa proconsularis,,,1,
"Beni Darradji, Hr.",Africa proconsularis,,,1,
Beni Khalled / Chul,Africa proconsularis,10.5910641,36.6497149,5,
Benia / El-Benia,Africa proconsularis,3.2923197,35.9287678,1,
Benia bel Recheb,Africa proconsularis,10.178666,33.203857,2,
"Bent el Bey, Hr.",Africa proconsularis,9.919167,36.326389,3,
Benzioun / Kef Bezioun / Kudiat el Batum / Hammam Nbail / Zattara,Africa proconsularis,7.533333,36.366667,45,
Berdadi,Africa proconsularis,,,2,
Beresgane,Africa proconsularis,,,3,
"Bernoussa, Hr.",Africa proconsularis,,,6,
Berzegan,Africa proconsularis,,,1,
"Bez, Hr. / Baz, Ayn / Vazi Sarara / Vazi Sarra",Africa proconsularis,9.530301,36.01617,29,
Bi'r al Hufayy / Bir el-Hufayy,Africa proconsularis,9.2,34.933333,1,
Bi'r al Wa'r / Bir el Uaar,Africa proconsularis,13.3225,32.0522222,3,
Biar Belouffa,Africa proconsularis,,,2,
"Biar Chounch, Hr. / Thugga",Africa proconsularis,9.2029686,36.4215808,7,
"Biar Chounch, Hr., iuxta / Thugga",Africa proconsularis,9.201148,36.4212186,1,
Bijga / Bischka / Bichga / Bisica Lucana,Africa proconsularis,9.634267,36.397969,45,
Bin Arus / Ben Arous,Africa proconsularis,10.224547,36.7515997,2,
Biniana,Africa proconsularis,,,5,
"Bint al Aryan / Bent el-Ariane, Hr. / Thugga",Africa proconsularis,9.1474265,36.433142,1,
"Bir Ben Abid / el Hadjra el Beïda, Hr. / Thugga",Africa proconsularis,9.3501804,36.514757,2,
Bir Bou Lartal / Bir Bu Lartal,Africa proconsularis,,,1,
"Bir Bou Loufah / Haira, Hr. / El-Haira / Al-Haira / Gasr el-Haira / el-Jarbi, Hr. / al-Jarbi, Hr. / Bi'r Bu Lufah / Silesua",Africa proconsularis,9.566695,34.066662,10,
Bir Bou Rekba / Bi'r Bu Ruqbah / Ksar el-Zit / Ksar ez Zit / Gasr Essitt / Qasr az Zayt / Siagu / Civitas Siagitana,Africa proconsularis,10.5858786,36.4292611,21,
Bir Cedra,Africa proconsularis,,,2,
Bir Derbal,Africa proconsularis,,,2,
Bir Derroudj,Africa proconsularis,,,1,
Bir Djezzara,Africa proconsularis,10.0527778,36.7497222,3,
Bir Douaik,Africa proconsularis,,,1,
Bir Drassen / Bir Drassene,Africa proconsularis,10.6886311,36.6240777,2,
Bir Ech Chana / Bir el-Chana / Bir Chana,Africa proconsularis,10.1,36.433334,2,
"Bir Essefir, Hr.",Africa proconsularis,,,3,
Bir Halima / Bi'r Halimah / El-Khandak / Abbir Maius,Africa proconsularis,10.0444093,36.3963592,12,
Bir Hannachi / Bir Hanachi,Africa proconsularis,7.6491667,35.4613889,1,
Bir Laafou,Africa proconsularis,,,2,
Bir Magra / Thibica,Africa proconsularis,9.7579662,36.3357885,18,
Bir Mangub,Africa proconsularis,,,3,
Bir Marbot / Bir Mrabott / Henchir Marbot / Henchir Mrabet / El Amaiem,Africa proconsularis,9.107996,34.253896,2,
Bir Meraktite / Bir Merakite,Africa proconsularis,,,1,
Bir Musa,Africa proconsularis,,,1,
Bir Ouled el-Gelai / Bir Uled el-Gelai,Africa proconsularis,,,1,
Bir Rhezen / Sidi Mohammed Ben Aissa / Bezereos,Africa proconsularis,9.4981291,33.5037011,8,
Bir Scedeua,Africa proconsularis,13.45,31.2833333,1,
"Bir Sofuir, Hr.",Africa proconsularis,,,1,
Bir Tabenk,Africa proconsularis,,,3,
Bir Tarsin,Africa proconsularis,,,1,
Bir Tersas / Praedia Rufi Volusiani / Thugga,Africa proconsularis,9.3018342,36.4630767,6,
Bir Tlelsa / Tielsa,Africa proconsularis,10.9026593,35.6510544,3,
Bir al Mashariqah / Bir Mcherga / Bir Mcharga / Tarf el Mcherga / Giufi,Africa proconsularis,9.9548905,36.5186996,39,
"Bir ben Faiza, Hr. / Thugga",Africa proconsularis,9.3335725,36.5262819,2,
"Bir el Bey / Sidi Ali el-Kafi, Hr. / Nara",Africa proconsularis,9.3386111,35.0880556,1,
Bir el Goussate,Africa proconsularis,9.733333,36.016667,2,
Bir el Haj Ahmed / Bir el-Hadj Ahmed,Africa proconsularis,9.8711111,36.4277778,1,
Bir el Hajar / Bir el-Hadjar / Bit el-Hadjar,Africa proconsularis,9.9755556,35.3747222,3,
Bir el-Achmin,Africa proconsularis,,,7,
Bir el-Adine,Africa proconsularis,9.7466667,35.6669444,2,
"Bir el-Afu, Hr.",Africa proconsularis,,,5,
Bir el-Fauwara,Africa proconsularis,,,2,
Bir el-Hadj Mahmoud el-Aouine,Africa proconsularis,,,1,
Bir el-Hanascher,Africa proconsularis,,,4,
"Bir el-Niar, Hr. / Bir en-Niar",Africa proconsularis,,,1,
Bir el-Oesch / Bir Abadlia / Al 'Abadiliyah / El Abadlia / Bir el-Heuch / Bir Ul-Och / Bir el-Ach / Sululis,Africa proconsularis,9.605158,36.461372,4,
Bir el-Tuta / Bir et-Tuta / Bir et-Touta / Thugga,Africa proconsularis,9.2328062,36.4879076,2,
Bir et-Touta / Thugga,Africa proconsularis,9.2328062,36.4879076,1,
Bir ez Zitoun / Bir el-Zitoun,Africa proconsularis,10.2136111,35.3905556,1,
Bizerte / Bisert / Banzart / Hippo Diarrhytus,Africa proconsularis,9.8713665,37.2732415,18,315038
Bled Ben-Habtoun,Africa proconsularis,,,9,
Bled Demane et Torba,Africa proconsularis,9.871389,36.225,2,
Bled Jdida / Blaed Djedida,Africa proconsularis,,,1,
"Bled, Hr. el",Africa proconsularis,10.4847,35.6278,3,
"Bnena, Hr.",Africa proconsularis,,,1,
Borche el Amer / Bordj el-Amer,Africa proconsularis,,,1,
"Bordj Alaouine / El-Alouine / el-Aluin, Hr. / Sicilibba",Africa proconsularis,9.873597,36.68588,12,
Bordj Bou Baker / Bordj el-Hadj Bou Baker / Civitas Geumitanorum / Thugga,Africa proconsularis,9.1597735,36.3923931,1,
"Bordj Bou Jadi / Bou Djadi, Hr./ Bu Djadi / Ucres",Africa proconsularis,9.97083,36.901123,1,
Bordj Chambi,Africa proconsularis,8.75,35.233333,1,
Bordj Djedid,Africa proconsularis,8.75,36.95,3,
Bordj Djemaour,Africa proconsularis,,,1,
Bordj Gobet el-Gheffari,Africa proconsularis,,,1,
Bordj Gourbala / Gourbata,Africa proconsularis,8.5489065,34.272432,1,
Bordj Lestlets,Africa proconsularis,,,3,
Bordj Maajen / Borj Mejen Bel Abbes,Africa proconsularis,8.516667,34.733333,2,
Bordj Meksenna,Africa proconsularis,,,1,
Bordj Messaudi,Africa proconsularis,9.06,36.29056,8,
Bordj Mrira,Africa proconsularis,,,1,
Bordj Ouled Dhia / Bordj Uled Dhia,Africa proconsularis,,,2,
Bordj Ouraou / Ureu,Africa proconsularis,9.535499,36.875269,9,
Bordj Salah Saksi,Africa proconsularis,,,1,
Bordj Sebbalat / Ad Aquas,Africa proconsularis,,,2,
Bordj Sidi Amor Ben Attiar,Africa proconsularis,,,1,
Bordj Sidi Hamar,Africa proconsularis,,,1,
Bordj Tahar / Thugga,Africa proconsularis,9.260657,36.499636,1,
Bordj Tajaa / Thugga,Africa proconsularis,9.1270865,36.4245605,1,
Bordj Wirghi / Ouerrhi / Thugga,Africa proconsularis,9.2476561,36.5089776,1,
Bordj ben Achour / Thugga,Africa proconsularis,9.2364442,36.5072906,7,
Bordj el-Ain / Bordj Bellamine / Thugga,Africa proconsularis,9.2301208,36.4283028,8,
Bordj el-Amri / Borj el-Amri,Africa proconsularis,9.8822665,36.7118658,12,
Bordj el-Hadj el-Arbi / Saltus Massipianus,Africa proconsularis,1.05,36.316667,1,
Bordj el-Hatab,Africa proconsularis,,,1,
Bordj el-Rihana / Bordj er-Rihana,Africa proconsularis,,,3,
Borj Cedria / Bordj Cedria / Cumis,Africa proconsularis,10.3857098,36.6964922,1,
"Botria, Hr. / Ras Botria / Ras Boutria / Betria / Badria / Acholla",Africa proconsularis,11.020575,35.0796,27,324653
Bou Afinah / Bu Afinah,Africa proconsularis,8.4516667,35.7463889,1,
"Bou Ahmed, Hr. / R'rao, Hr. / Fundus Tigibelle / Res publica [] Teanensium / Thugga",Africa proconsularis,9.3866448,36.4587431,7,
Bou Allouch / Bou Allusch,Africa proconsularis,8.8167,36.3333,2,
"Bou Arara, Hr.",Africa proconsularis,9.578611,35.845554,2,
Bou Argoub / Bou Arkoub / Bu Urqub,Africa proconsularis,10.5510357,36.5333936,2,
Bou Assid / Fundus Aufidianus,Africa proconsularis,9.666923,37.033395,3,
Bou Atfan / Bu Atfan / Guelaa Bou Atfane / Oum Krekeche / Umm Gerrigesch / Guelaat Bouatfane / Nattabutes,Africa proconsularis,,,257,
Bou Auya / Bu Auya,Africa proconsularis,,,8,
"Bou Cha, Hr. / Boucha / Bou Scha / Bu-Scha / Municipium Turcetanum / Municipium Aurelium C[]",Africa proconsularis,9.8891933,36.5277454,35,
Bou Chebibe / Lasica,Africa proconsularis,,,1,
Bou Djenah,Africa proconsularis,6.05,36.8333,2,
Bou Falia,Africa proconsularis,,,1,
Bou Garnin / Villa Magna,Africa proconsularis,11.216424,33.181823,1,
"Bou Gornine, Hr.",Africa proconsularis,,,1,
"Bou Goussa, Hr.",Africa proconsularis,,,1,
Bou Hajar / Bu Hajar,Africa proconsularis,10.866667,35.683334,1,
Bou Haya,Africa proconsularis,8.5954534,35.1882494,1,
Bou Jdaria / Bou Idaria,Africa proconsularis,,,3,
"Bou Jniba, Hr.",Africa proconsularis,,,2,
Bou Kaia / Bu Kaia / El-Kaia,Africa proconsularis,,,12,
Bou Kerin / Aquae Cirnensis,Africa proconsularis,,,1,
Bou Khchim,Africa proconsularis,,,1,
Bou Maazoun / Bu Maazoun,Africa proconsularis,,,11,
Bou Maharez / Mahares,Africa proconsularis,,,2,
"Bou Mlem, Hr.",Africa proconsularis,,,1,
Bou Rebia / Bu ar Rabiah / Bou er Rebia / Pagus Mercurialis,Africa proconsularis,10.12,36.602778,7,
Bou Sadoun,Africa proconsularis,,,1,
"Bou Sof, Hr.",Africa proconsularis,4.987904,35.835426,2,
"Bou Taba, Hr. / Bu Taba, Hr. / Menegere",Africa proconsularis,8.470741,35.368472,1,
Bou Zeitun / Bu Zeitun,Africa proconsularis,,,1,
Bou Zgoug,Africa proconsularis,,,1,
Bou el-Acbasc / Bu el-Acbasc,Africa proconsularis,,,1,
Bouaouene,Africa proconsularis,9.0067754,36.6936637,1,
Bouchegouf / Zattara,Africa proconsularis,7.7290561,36.4704821,3,
"Boughrara / Bou Ghrara / Bou-Ghara / Bou Grara / Bon Grara / Zian, Hr. / Gigthis",Africa proconsularis,10.6741918,33.5393404,135,
"Bouibet, Hr. / M'Bkekich, Hr. / Fachmia, Hr. / Ammaedara",Africa proconsularis,8.4135739,35.5948783,55,
Boujlida / Bou Djelida / Bou Jelida / Mizeoter / Gens Bacchuiana,Africa proconsularis,9.5047835,36.4149476,57,
Boukhil / Bou Kehil / Gebel Bou Kohel / Djebel bau-Kohel,Africa proconsularis,9.1303962,36.2804725,1,
Bouraoui Belhadef / Bouraroui,Africa proconsularis,6.103131,36.6992926,4,
Boursala,Africa proconsularis,,,5,
Bouzid Ben Aleya,Africa proconsularis,,,3,
Bouzouitina,Africa proconsularis,,,3,
Brahim Ben Kherif / Ammaedara,Africa proconsularis,,,8,
Brahim Ben Sai,Africa proconsularis,,,1,
"Brahim Riah', Hr. / Kinfiria / Thugga",Africa proconsularis,9.1907365,36.4039453,8,
"Brighita, Hr. / Sucubi",Africa proconsularis,9.645585,36.317358,11,
"Brik, Hr.",Africa proconsularis,9.287222,35.304443,7,
"Brir't, Hr. / Brirt",Africa proconsularis,,,1,
Brisgam / Macomades Minores / Iunci,Africa proconsularis,10.497324,34.525858,3,
"Bu Fatis, Hr. / Bou Ftis, Hr. / Avitta Bibba",Africa proconsularis,9.70275407,36.4030368,33,
Bujobsa / Bubiosa,Africa proconsularis,,,1,
"Buladia, Hr.",Africa proconsularis,,,1,
"Burcha, Hr. / Turca",Africa proconsularis,,,1,
Busalim / Bou Salem,Africa proconsularis,8.9713004,36.6079377,7,
Caf el-Berber / Kef el-Berber / Cat el-Berber,Africa proconsularis,,,1,
Cap Demaz,Africa proconsularis,,,17,
Carthago,Africa proconsularis,10.3233333,36.8527778,8518,
Chabet-Rouajat,Africa proconsularis,,,1,
Chaffai / Schaffai,Africa proconsularis,8.60285326,35.54505,15,
Chaouache / Shawash / Schauwasch / Suas,Africa proconsularis,9.5409261,36.7118225,40,
Chaouat,Africa proconsularis,9.944471,36.8894814,4,
"Chara, Ain",Africa proconsularis,8.3936111,36.6308333,1,
Chareb*,Africa proconsularis,,,8,
Charren-Zebida,Africa proconsularis,,,14,
Chebika / Shabikah / Speculum,Africa proconsularis,7.9351219,34.3184732,6,
"Chelga, Hr. / Schelga, Hr.",Africa proconsularis,9.519243,36.807753,2,
"Chemlali, iuxta",Africa proconsularis,9.86334,33.63045,1,
Chemtou / Chimtou / Shimtu / Simitthus,Africa proconsularis,8.577901,36.492029,330,315174
"Chenah, Hr.",Africa proconsularis,9.516667,34.016666,7,
Cherfeddine,Africa proconsularis,,,1,
"Chett, Hr. / Ain Trab / Bordj Abd el-Melek / Sidi Abd el-Melek / Pagus Suttuensis / Thugga",Africa proconsularis,8.421198,36.418637,40,
"Chigarnia, Hr. / ech-Chegarnia, Hr. / Uppenna",Africa proconsularis,10.441259,36.16839,84,
Chott Menzel Yahia,Africa proconsularis,,,11,
Choud el-Batel / Schuhud el-Batal,Africa proconsularis,,,13,
"Chouegoui / Chouggui, Hr. / Chouiggui / Thubba",Africa proconsularis,9.801327,36.878082,7,
"Contra, Hr.",Africa proconsularis,,,2,
Cretiville / Creteville,Africa proconsularis,10.324693,36.6614168,1,
"Dabus, Hr.",Africa proconsularis,,,1,
"Dachduchai, Hr.",Africa proconsularis,,,1,
Dahr Sidi Assin bu Debbus / Dahr Sidi Assin Bou Debbous / Dechra Bou Daboux,Africa proconsularis,,,1,
"Dalia, Hr. ed / Dalia, Hr. el",Africa proconsularis,10.776802,36.740067,1,
"Damous, Hr. / El-Damous / Oued Damoud / Se[]",Africa proconsularis,,,8,
"Damous, Hr. / Thugga",Africa proconsularis,9.1828896,36.4113833,7,
"Daoua Rouho, Hr.",Africa proconsularis,,,1,
Dar Ali el-Hochani / Dal Ali el-Hochani,Africa proconsularis,,,1,
Dar Ali-Zemmal,Africa proconsularis,,,1,
Dar Tebala,Africa proconsularis,,,1,
Dar el-Acheb,Africa proconsularis,9.2178087,36.4218249,3,
Dar el-Arussi,Africa proconsularis,,,1,
"Dashrat Chetlou / Chetlou, Hr. / Fossa Regia / Thugga",Africa proconsularis,9.3794809,36.4309589,1,
Dashrat al-Qulayah / Dashrat el-Qulayah,Africa proconsularis,9.57635,35.91997,2,
Davairocho,Africa proconsularis,,,4,
"Dawalah / Douila, Hr. / Municipium Sicingitanum / Mizigita",Africa proconsularis,10.612013,36.831593,2,
"Dawwar Bed / Bedd, Hr. / Medd, Hr. / Avedda",Africa proconsularis,9.583333,36.8,34,
"Debbik, Hr. / Municipium Septimium",Africa proconsularis,9.8610529,36.5994336,12,
"Debbiya, Hr. / Bir ben Faiza / Thugga",Africa proconsularis,9.3255258,36.5261304,2,
Dechret Jenoua / Dechret Djenoua,Africa proconsularis,9.5,35.833333,2,
"Dedech, Hr.",Africa proconsularis,,,1,
"Deheb, Hr.",Africa proconsularis,,,5,
Deimech,Africa proconsularis,,,1,
Deirat,Africa proconsularis,,,4,
Dekhilet el-Adjaj,Africa proconsularis,,,1,
Dekrnia,Africa proconsularis,9.2,36.333333,2,
"Deminia, Hr.",Africa proconsularis,,,1,
Demna,Africa proconsularis,9.853611,37.313611,3,
Depienne,Africa proconsularis,10.0237541,36.4547824,6,
Derirat,Africa proconsularis,,,2,
"Dermoulia, Hr. / Coreva",Africa proconsularis,9.48485,36.504969,8,
Devirat,Africa proconsularis,,,3,
Dguache / Degache / Griss / Thiges,Africa proconsularis,8.2157997,33.9837331,4,
"Dhorbania / Oued Nebhana, Hr. / Thambeis",Africa proconsularis,10.02064,36.19392,1,
"Diab, Hr. ed / Diab, Hr. el",Africa proconsularis,9.00745,35.280865,1,
"Diffa, Hr.",Africa proconsularis,,,3,
Diyar Al Hujjaj / Diar el Hajjej,Africa proconsularis,10.8634917,36.6271637,6,
"Djal, Hr. / Jal / Uzali Sar",Africa proconsularis,9.688235,36.811582,18,
Djarra,Africa proconsularis,,,1,
Djebba / Thigibba Bure,Africa proconsularis,9.0930745,36.4839849,73,
Djebel Azereg / Gebel Azereg,Africa proconsularis,2.8358333,34.1147222,1,
Djebel Cheidi / Gebel Cheidi,Africa proconsularis,,,30,
Djebel Djaffa / Gebel Djaffa,Africa proconsularis,,,1,
Djebel Djelloud / Gebel Djelloud,Africa proconsularis,10.205,36.77639,181,
"Djebel El West / El-Ouest, Hr.",Africa proconsularis,10.059744,36.5539867,2,
Djebel Hadifa / Gebel Hadifa,Africa proconsularis,9.4666667,34.1,15,
Djebel Mansour / Gebel Mansour / Jabal Mansur / Kharrouba / Ech Charoub / Gales,Africa proconsularis,9.69998,36.266625,36,
Djebel Oust / Gebel Oust / Cheylus / Shaylus,Africa proconsularis,10.0613122,36.5551149,3,
Djebel R'bia / Gebel R'bia,Africa proconsularis,,,2,
Djebel Slagwa / Thugga,Africa proconsularis,9.2770467,36.4864889,1,
Djebel Stiah / Gebel Stiah,Africa proconsularis,7.6666667,35.5,3,
Djebel Tafechna / Gebel Tafechna,Africa proconsularis,,,1,
"Djelal, Hr.",Africa proconsularis,5.8833,36.7833,2,
"Djemelihia, Hr.",Africa proconsularis,,,1,
Djenun,Africa proconsularis,,,3,
"Djerba / Jerba, Ile de / Girba",Africa proconsularis,10.8859041,33.7733905,24,
"Djibinia, Hr.",Africa proconsularis,9.87721,35.713047,1,
"Djouana, Hr.",Africa proconsularis,,,3,
"Djour, Ayn al",Africa proconsularis,10.1,36.450001,1,
"Douameus, Hr. / Mta l'oued Rmel / Kern el Kebch, Hr. / Aunobaris / Thugga",Africa proconsularis,9.1913397,36.383081,44,
Douar Bayoud,Africa proconsularis,9.333333,35.633333,1,
Douar Chabia,Africa proconsularis,9.398166,36.60873,1,
Douar Khima,Africa proconsularis,9.938611,37.155556,8,
Douar Mohamia,Africa proconsularis,,,1,
Douar Zaouia es Sghira,Africa proconsularis,9.995,36.906113,8,
"Douemis, Hr. / Dawamis, Hr. ad / Duemis / Duamis / ed-Duamis, Hr. / Gebel el-Douemis / Jabal al-Duwaymis / Uchi Maius",Africa proconsularis,9.0840653,36.4109475,565,
Dougga / Thugga,Africa proconsularis,9.21869726,36.4234669,2087,315223
"Dougga, Hr. / Tucca Terebentina / Thugga Terebenthina",Africa proconsularis,9.014215,35.829469,3,
"Dougga, iuxta (1) / Thugga",Africa proconsularis,9.2243162,36.4275916,1,
"Dougga, iuxta (2) / Thugga",Africa proconsularis,9.1979481,36.4361179,1,
"Dougga, iuxta (4) / Thugga",Africa proconsularis,9.2122404,36.4219358,1,
"Dougga, iuxta (5) / Thugga",Africa proconsularis,9.2239089,36.4124706,2,
"Dougga, iuxta (6) / Thugga",Africa proconsularis,9.20701,36.4271563,1,
"Dougga, iuxta (7) / Thugga",Africa proconsularis,9.2223778,36.4281128,1,
"Dougga, iuxta (8) / Thugga",Africa proconsularis,9.2228662,36.4273851,1,
"Dougga, iuxta (9) / Thugga",Africa proconsularis,9.1672276,36.423652,2,
Douimes,Africa proconsularis,,,2,
Doukhania,Africa proconsularis,9.22812792,36.3492476,8,
Draa Ben Jouder,Africa proconsularis,10.0205839,36.2733109,6,
Draa Faiza,Africa proconsularis,,,1,
Draa Tebessi,Africa proconsularis,,,5,
"Draa el Gamra, Hr. / Gor",Africa proconsularis,9.97604,36.434323,4,
Draa er-Rahel / Draa el-Rahel,Africa proconsularis,,,1,
"Duemis, Hr. / Saia Maior",Africa proconsularis,9.74639,35.6611,12,
Duerville,Africa proconsularis,,,1,
"Duraydir, Bi'r",Africa proconsularis,13.4552778,31.2902778,21,
"Dzemda, Hr. / Semta",Africa proconsularis,9.887345,36.269282,3,
Eastern Jabal,Africa proconsularis,13.541556,32.301501,2,
Ebba Ksoui / Ebba / Obba,Africa proconsularis,8.831133,35.945881,14,
"Eddouara, Hr.",Africa proconsularis,,,1,
Ehelel,Africa proconsularis,,,4,
El Abd,Africa proconsularis,20.966667,25.583332,1,
"El Adud, Hr.",Africa proconsularis,,,1,
El Afareg,Africa proconsularis,,,5,
El Ahmar / Ziccilia / Thugga,Africa proconsularis,9.2795621,36.4147451,1,
El Akrouabi,Africa proconsularis,,,4,
El Alaimia,Africa proconsularis,3.0672436,35.8022057,6,
El Alia / Uzalis,Africa proconsularis,10.0338705,37.1689041,14,
El Allouani / Civitas []iana,Africa proconsularis,,,2,
El Amech,Africa proconsularis,3.0458,36.1743,1,
El Aouja,Africa proconsularis,9.9561111,35.4363889,7,
El Arais,Africa proconsularis,,,2,
El Assi,Africa proconsularis,,,1,
"El Avavi, Hr. / Thugga",Africa proconsularis,9.1726266,36.4574543,2,
El Ayaicha / El Aayaycha,Africa proconsularis,9.2493514,34.2477548,5,
El Ayaida / Vaga,Africa proconsularis,9.184162,36.726581,1,
El Baroud / Ammaedara,Africa proconsularis,,,12,
El Blida / Abitina,Africa proconsularis,,,2,
El Bordj,Africa proconsularis,,,1,
"El Boua, Hr.",Africa proconsularis,,,1,
El Chrib / El Khrib,Africa proconsularis,,,3,
El Djemel,Africa proconsularis,10.7833,34.9,5,
El Fahs / Castellum Biracsaccarensium,Africa proconsularis,9.9088592,36.382301,15,
El Garra,Africa proconsularis,,,14,
El Getat,Africa proconsularis,,,5,
El Giz,Africa proconsularis,,,1,
El Gonai,Africa proconsularis,,,13,
El Gorraiia,Africa proconsularis,,,6,
El Grey,Africa proconsularis,,,1,
El Guecib,Africa proconsularis,,,1,
"El Gueciret, Hr. / Turris Maniliorum Arelliorum",Africa proconsularis,10.090502,33.47634,1,
"El Guettar, Hr.",Africa proconsularis,8.951796,34.3364077,1,
El Haeria,Africa proconsularis,9.0489101,35.7192153,2,
El Hamadja,Africa proconsularis,6.65,34.5166667,1,
El Hamima,Africa proconsularis,9.921389,35.086945,11,
"El Hamina, Hr.",Africa proconsularis,,,1,
"El Haouaria, Hr.",Africa proconsularis,10.001389,35.600277,8,
El Hatba / Fundus Ver[],Africa proconsularis,,,7,
"El Homs, Hr.",Africa proconsularis,,,1,
El Iudi,Africa proconsularis,,,1,
El Jem / El Djem / Al Jamm / Thysdrus,Africa proconsularis,10.7126913,35.2966474,178,324835
"El Joue, Hr.",Africa proconsularis,,,1,
El Kantara / Houmt Cedouikech / Meninx,Africa proconsularis,10.9210583,33.6865205,15,
El Karia,Africa proconsularis,,,2,
El Kebet Chrig / Ammaedara,Africa proconsularis,,,2,
El Kebir,Africa proconsularis,,,11,
El Kef / Le Kef / Sicca Veneria,Africa proconsularis,8.7043493,36.1675068,821,315152
"El Kelkh, Hr. / Thaddur",Africa proconsularis,9.718538,36.459555,1,
El Khadra,Africa proconsularis,0.591516,34.057938,7,
"El Khandak, Hr.",Africa proconsularis,,,1,
El Kharouba,Africa proconsularis,10.4719,36.3661,2,
El Kheima / Ammaedara,Africa proconsularis,10.019815,34.015249,3,
El Kouif,Africa proconsularis,8.321967,35.500823,2,
El Kous,Africa proconsularis,7.8544755,36.7980926,1,
El Kouskiss,Africa proconsularis,,,11,
El Krib / Al Krib / Mustis,Africa proconsularis,9.1344449,36.3260298,6,
El Ksour / Al-Qusur / Ksour Abd el-Melek / Ksour Abdelmalek / Uzappa,Africa proconsularis,9.330556,35.924167,83,
El Left,Africa proconsularis,,,1,
"El Maden, Hr. / El Mden / Mden / Elmden / Vina",Africa proconsularis,10.550673,36.510508,11,
El Mdou,Africa proconsularis,10.0758515,33.8108983,1,
El Merissa / Mraissa / Karpis,Africa proconsularis,10.5738997,36.7939534,9,
El Messaouer,Africa proconsularis,,,1,
El Mra Meita,Africa proconsularis,,,2,
El Oubira,Africa proconsularis,,,1,
El Sera,Africa proconsularis,10.4333,36.4833,2,
"El Torresch, Hr.",Africa proconsularis,,,3,
El Wed / Turratensium,Africa proconsularis,,,2,
El-Abd,Africa proconsularis,9.0147,35.3081,4,
El-Ahsan,Africa proconsularis,,,4,
"El-Aroussa / Al-Aroussa / Al-Arusa / Tambra, Hr. / Bordj Tambra / Thabbora",Africa proconsularis,9.45317745,36.379369,37,
El-Asabiah / Al-Asabiah,Africa proconsularis,12.866667,32.033333,2,
El-Aura,Africa proconsularis,,,2,
El-Awedi,Africa proconsularis,,,1,
"El-Biod, Hr.",Africa proconsularis,,,4,
El-Brige / Thugga,Africa proconsularis,,,1,
"El-Fnideg, Hr. / Fnideg, Hr.",Africa proconsularis,9.469719,35.323093,2,
El-Gebel el-Gharbi / Al-Jabal al-Gharbi / El-Qaryah el-Sharqiyah / Al-Qaryah ash-Sharqiyah / Gheriat el-Garbia / Myd[],Africa proconsularis,13.6,30.4,16,
El-Ghouiba,Africa proconsularis,9.4508333,35.3211111,1,
El-Jehudiah,Africa proconsularis,,,2,
El-Karib / Al-Karib,Africa proconsularis,9.1359301,36.3284259,2,
El-Khadra / Al-Khadra',Africa proconsularis,13.766667,32.45,3,
"El-Khima / El-Khimah / el-Chima, Hr. / Avula Municipium",Africa proconsularis,,,39,
El-Khima mta Zaruia,Africa proconsularis,,,1,
El-Kley,Africa proconsularis,,,2,
El-Knaiss,Africa proconsularis,,,1,
"El-Krima, Hr. / El-Khima, Hr. / Uchi Minus / Alma",Africa proconsularis,9.538906,36.504007,5,
El-Ktabh,Africa proconsularis,,,10,
"El-Maiz, Hr. / Theveste",Africa proconsularis,,,13,
El-Marja / Ammaedara,Africa proconsularis,9.6275,35.8913889,1,
El-Media / Al-Media,Africa proconsularis,10.8117,33.1089,1,
El-Minshar / Al-Minshar,Africa proconsularis,9.316667,36.733333,7,
El-Qannarah / Al-Qannarah,Africa proconsularis,8.7167,35.7,20,
El-Qasabat / Al-Qasabat,Africa proconsularis,14.0411,32.5833,3,
El-Sabah Ruqud / As-Sabah Ruqud,Africa proconsularis,9.2833,35.7333,1,
El-Saluqiyah / As-Saluqiyah / Slouguia / Sloughia / Chidibbia,Africa proconsularis,9.5112152,36.5803955,39,
El-Waslatiyah / Al-Waslatiyah / Ousseltia,Africa proconsularis,9.5951694,35.8519185,7,
Elles,Africa proconsularis,9.0969866,35.9486106,5,
Embarek Ben Sla,Africa proconsularis,,,1,
En Naima / Sicca Veneria,Africa proconsularis,,,1,
En Neif,Africa proconsularis,,,1,
En-Ngila,Africa proconsularis,13.0316768,32.7462777,17,
Enfidha,Africa proconsularis,10.3780065,36.1341289,19,
"Er-Rebaa, Hr. / Bel-Anine, Hr. / Thugga",Africa proconsularis,9.2163591,36.4868418,2,
Er-Rmathi,Africa proconsularis,,,1,
Es Schiri,Africa proconsularis,,,4,
Es Sedria,Africa proconsularis,,,1,
Es Segi,Africa proconsularis,,,3,
Es Steh / Tacapes,Africa proconsularis,10,32.0166667,1,
Esnakit,Africa proconsularis,,,4,
Et Tutait,Africa proconsularis,,,3,
Et-Thobal,Africa proconsularis,,,1,
F'Kirina / Fkirina,Africa proconsularis,7.2972243,35.6608817,2,
Fachamia / Ammaedara,Africa proconsularis,,,15,
"Faddan al Baqar / Feddane el Begar / el-Begar, Hr. / Casae Beguenses",Africa proconsularis,9.966667,35.533333,3,
Fadden Souk / Thugga,Africa proconsularis,9.3164331,36.41285,3,
"Fadden Souk, iuxta / Thugga",Africa proconsularis,9.3235174,36.4283252,1,
Fallous,Africa proconsularis,,,1,
Fasqiyat al Habs,Africa proconsularis,14.333333,31.783333,1,
Fedden G'mer,Africa proconsularis,8.4628,36.6794,1,
Fedj Medjaled,Africa proconsularis,,,2,
Fedj Meraou,Africa proconsularis,,,1,
Fedj el Berkuk,Africa proconsularis,,,21,
Fedj es Suyud,Africa proconsularis,,,1,
Feidh Siouda,Africa proconsularis,,,1,
Feidj Zemmite,Africa proconsularis,,,6,
Fej Hsine / Simitthus,Africa proconsularis,10.151516,37.1126662,1,
Ferme Ain al Hammam / Pagus Assallitanus,Africa proconsularis,9.3006723,36.4241247,3,
Ferme Glaize / Cooperative Ben Chebel / Thugga,Africa proconsularis,9.3011011,36.4444339,3,
Fidh-Nekhala,Africa proconsularis,,,1,
"Frass, Hr. el / Faras, Hr. al / Gillium",Africa proconsularis,9.038332,36.477401,26,
Fuara,Africa proconsularis,,,2,
Fum Es Somma,Africa proconsularis,,,9,
"Furna, Hr. / Furna Mta Sgralma, Hr. / Forna Mta Zralma, Hr. / Zeralma / Enchir Forna / Mutia",Africa proconsularis,8.562379,35.697392,4,
Fyala,Africa proconsularis,,,1,
Gaafour / Gaffour / Qa Afur / Qafur,Africa proconsularis,9.3217449,36.3242676,1,
"Gaaga, Djebel",Africa proconsularis,7.8383333,35.4108333,1,
Gabel-Sguig,Africa proconsularis,,,2,
Gabes / Tacapes,Africa proconsularis,10.0971389,33.8833922,32,
Gadamis / Ghadamis / Ghadames / Cidamus,Africa proconsularis,9.4900658,30.1258404,10,
Gafsa / Gabs / Fedjedj / Capsa,Africa proconsularis,8.7843647,34.4224429,132,324684
Gaga,Africa proconsularis,,,1,
"Gallal, Hr. el",Africa proconsularis,9.886289,35.890076,1,
"Gamarti, Hennchir",Africa proconsularis,9.65,36.5333,1,
Gammana,Africa proconsularis,,,2,
Gammarth / Gammart / Gamart,Africa proconsularis,10.2982063,36.9051083,1,
Gamoudi,Africa proconsularis,10.9692,36.9947,2,
"Gargara, Hr.",Africa proconsularis,,,1,
Gasr Amr bir Rabach,Africa proconsularis,,,2,
Gasr Bel Wadwada,Africa proconsularis,,,2,
Gasr Changet el Ajesch,Africa proconsularis,,,1,
Gasr Dellasc,Africa proconsularis,,,3,
Gasr Elluss,Africa proconsularis,,,3,
Gasr Gharian,Africa proconsularis,,,1,
Gasr Giaka,Africa proconsularis,,,1,
Gasr Hammud,Africa proconsularis,,,1,
Gasr Lachma,Africa proconsularis,,,2,
Gasr Masaud,Africa proconsularis,,,1,
Gasr Mezuar,Africa proconsularis,,,7,
Gasr Umm er-Raml,Africa proconsularis,,,1,
Gasr Zerzi,Africa proconsularis,15.171182,30.594523,2,
Gasr el Ahmar / Saltus Sorothensis,Africa proconsularis,,,1,
Gasr el Dauun / Qasr ad Dawun,Africa proconsularis,13.90342,32.45771,2,
Gasr el-Ureia,Africa proconsularis,,,1,
Gasr ez-Zlaseia,Africa proconsularis,,,1,
Gastal,Africa proconsularis,8.2493435,35.4164835,4,
Gataa,Africa proconsularis,,,1,
"Gatt, Marqab al",Africa proconsularis,7.8666667,33.6666667,1,
"Gattoucia, Hr.",Africa proconsularis,,,1,
"Gattouna, Djebel",Africa proconsularis,10.4022222,36.6716667,1,
Gelat el Senan,Africa proconsularis,,,3,
Ghaiada / Ghayada / Ghayadha,Africa proconsularis,9.081467,36.475683,99,
Ghar al Milh / Ghar el-Milh,Africa proconsularis,10.188536,37.1686873,1,
Ghardimaou,Africa proconsularis,8.439679,36.4469714,22,
"Gharib, Mintaqat al",Africa proconsularis,21.1833,32.5833,2,
Gharyan,Africa proconsularis,13.0211451,32.1715873,1,
Ghehua,Africa proconsularis,,,2,
Ghirza / Qirzah,Africa proconsularis,14.483333,30.933332,16,
"Ghorab, Hr.",Africa proconsularis,9.978056,35.32,4,
"Ghorfa, Jebel el",Africa proconsularis,10.9481065,36.989817,1,
"Gmata, Hr.",Africa proconsularis,11.035767,34.551811,3,
Gorfa,Africa proconsularis,,,2,
Gorraa / Thugga,Africa proconsularis,9.118653,36.4535156,4,
"Goudhan, Djebel / Thugga",Africa proconsularis,9.1440002,36.4468496,2,
"Goulla, Hr.*",Africa proconsularis,,,1,
"Goungla, Hr. / Gunela",Africa proconsularis,9.766667,37.166668,1,
"Gourai, Hr.",Africa proconsularis,9.883333,33.766666,8,
Gourhasselissa,Africa proconsularis,,,3,
Gourine,Africa proconsularis,8.9583333,36.2419444,20,
Gourt-er-Raiane,Africa proconsularis,,,1,
"Goussa, Hr.",Africa proconsularis,9.208796,34.5910711,12,
Graiba,Africa proconsularis,10.2137565,34.4960648,1,
Grombalia / Grumbelia,Africa proconsularis,10.499033,36.5995429,2,
Gsra Amr Bir Rabach,Africa proconsularis,,,2,
Guarra,Africa proconsularis,,,4,
Guefa el Metsane,Africa proconsularis,,,1,
Guelaa Sidi Yahia,Africa proconsularis,,,1,
Guellat Bou Sbaa / Guelaa Bou Sba / Calama,Africa proconsularis,7.4738525,36.5464868,9,
Guelma / Calama,Africa proconsularis,7.431015,36.465251,415,305039
"Guennaouch, Hr. / Oued Guelat el Bel / Thugga",Africa proconsularis,9.1684445,36.4328355,2,
Guentra el Kebir,Africa proconsularis,,,1,
"Guergour, Hr. / Gergur, Hr. / Qurqur, Hr. / Hammam Guergour / Masculula",Africa proconsularis,8.517999,36.354507,102,
Guerra,Africa proconsularis,,,2,
"Guettar, Hr. / El Guessa ta el Guetta / Thugga",Africa proconsularis,9.3112039,36.4217741,4,
"Guettar, Hr. / El Guessa ta el Guetta, iuxta (1) / Thugga",Africa proconsularis,9.3556512,36.4360404,1,
"Guettar, Hr. / El Guessa ta el Guetta, iuxta (2) / Thugga",Africa proconsularis,9.3904303,36.4623163,1,
"Guiz, Hr. el",Africa proconsularis,8.230363,35.153061,25,
Gurai,Africa proconsularis,,,8,
"H'Rich, Hr. / Thugga",Africa proconsularis,9.13640909,36.429488,1,
Habida,Africa proconsularis,,,1,
"Hadda, Hr.",Africa proconsularis,8.756667,36.440834,2,
Hadj Abid / Ammaedara,Africa proconsularis,,,10,
Hadj Zakuli,Africa proconsularis,,,1,
Haffouz / Aquae Regiae,Africa proconsularis,9.671755,35.635414,4,
Haj Abid / Ammaedara,Africa proconsularis,,,10,
Haj Bou Hafs,Africa proconsularis,,,1,
Hajeb el Ayoun / Hadjeb el Aioun / Sidi Abdelkader / Masclianae,Africa proconsularis,9.5424162,35.395434,52,
Hajj Belgacem,Africa proconsularis,9,34,1,
Hajj Mohamed Salah Mahfoudhi,Africa proconsularis,,,1,
Halal,Africa proconsularis,,,2,
"Halfaia, Djebel",Africa proconsularis,8.9333333,34.0833333,3,
Hamaima,Africa proconsularis,8.3517984,35.9186989,1,
"Hamamiyah, Wadi al",Africa proconsularis,10.683333,32.833332,2,
"Hamedna, Ain el",Africa proconsularis,8.8283333,35.6686111,3,
Hamimat Souda / Theveste,Africa proconsularis,7.7155556,35.1083333,1,
Hammam Darradji / Hammam Derradji / Bulla Regia,Africa proconsularis,8.7523295,36.557824,466,314912
Hammam Debagh / Aquae Thibilitanae,Africa proconsularis,7.2676947,36.4602654,1,305030
Hammam Oulad Zaid,Africa proconsularis,8.025891,36.356815,6,
Hammam Said,Africa proconsularis,,,4,
Hammam Seiala / Hammam Saiala / Hammam Siala / Aquae Traianae,Africa proconsularis,9.16609297,36.677515,2,
Hammam Soussa / Hadrumetum,Africa proconsularis,10.5934755,35.8748635,1,
Hammam-Biadha / Aquae Aptuccensium,Africa proconsularis,8.911734,36.023338,1,
Hammam-Lif / Naro,Africa proconsularis,10.3362386,36.7317797,20,
Hammamet / Hammam / Ad Aquas Caesaris,Africa proconsularis,7.9506234,35.4493578,31,
Hammamet / Souk el-Abiod / Souh el-Abiod / Pupput,Africa proconsularis,10.6189213,36.398066,46,
"Hamouda, Hr.",Africa proconsularis,9.099278,35.448078,2,
Haouaria,Africa proconsularis,11.0536451,37.0363605,1,
Haouizeb / Silana,Africa proconsularis,,,1,
Haouli,Africa proconsularis,,,2,
Haouta-Chendouba / Agger,Africa proconsularis,,,1,
"Harrat / Harat, Hr. / Bou Ficha / Segermes",Africa proconsularis,10.301692,36.345023,44,
Haruri,Africa proconsularis,,,1,
"Hassan, Hr. el",Africa proconsularis,9.08285,35.377468,2,
"Hassi, Hr. el",Africa proconsularis,10.6947,34.6694,4,
Hawsh Bu Sharbiyah,Africa proconsularis,19.956747,31.650307,1,
Haydrah / Haidra / Hidra / Ammaedara,Africa proconsularis,8.4460507,35.5654145,1236,
Hedousif,Africa proconsularis,,,1,
Henchir Dallagi / Ammaedara,Africa proconsularis,8.6707878,35.5719599,1,
Henchir Es-Soud / Henchir Essoud / Henchir Sidi Boukthir,Africa proconsularis,9.824302,34.449377,1,
Henchir el Amri,Africa proconsularis,,,1,
Hendassa,Africa proconsularis,,,2,
"Hentaya, Hr.",Africa proconsularis,,,1,
Hergla / Harqalah / Horrea Caelia,Africa proconsularis,10.5086451,36.0313571,13,
"Hirba', Bi'r al",Africa proconsularis,11.5347222,31.9502778,6,
"Hnich, Hr.",Africa proconsularis,10.97277,33.32241,8,
Hosc el Mreied,Africa proconsularis,,,1,
Houmt Souk / Girba,Africa proconsularis,10.858684,33.875676,1,
Hughrissi,Africa proconsularis,,,1,
Imada Ennaaim,Africa proconsularis,,,5,
"Ishtaf, Wadi",Africa proconsularis,14.6833,31.05,2,
Jabal Barbrou,Africa proconsularis,9.2130556,35.73,4,
Jabal Biranaw,Africa proconsularis,8.6363889,35.4505556,2,
Jabal Bu al Hanash,Africa proconsularis,8.7016667,35.7130556,1,
Jabal Guennba / Chiniava,Africa proconsularis,9.5761111,36.9138889,3,
Jabal Jinan Kharuf,Africa proconsularis,8.2394444,34.6333333,1,
Jabal Krebita,Africa proconsularis,9.9666667,33.4666667,2,
Jabal Nafusah,Africa proconsularis,12,31.83333,1,
Jabal Tarhunah,Africa proconsularis,13.75,32.5,1,
Jabal az Zaatli,Africa proconsularis,8.7333333,34.9333333,2,
Jabbanat / Al-Jabbanah,Africa proconsularis,9.766667,32.55,2,
Jabbanit Bis-Snoussi / Thugga,Africa proconsularis,9.1896324,36.4069149,1,
"Jabbarah, Hasy",Africa proconsularis,11.2341667,33.2997222,1,
Jadda'im / Oliveti,Africa proconsularis,12.782778,32.78,1,
"Jalta, Hr.",Africa proconsularis,9.526944,37.077778,1,
"Jebana, Hr. el",Africa proconsularis,9.78921,35.499977,1,
Jebel Boukornine / Gebel Bou-Kornein / Djebel Bou-Kournein / Bou Kournein / Mons Balcaranensis,Africa proconsularis,10.3333883,36.7050284,387,
Jebel Moraba,Africa proconsularis,9.863056,36.599168,1,
Jebel Semmama,Africa proconsularis,8.8522222,35.3180556,1,
Jebiniana / Jabinyanah / Sfax,Africa proconsularis,10.908984,35.03514,2,
Jeddara,Africa proconsularis,8.931667,36.181667,5,
Jenan-ez-Zaytouna / Tapphugabensis / Tapphugabesis,Africa proconsularis,9.525144,36.287237,5,
Jilma / Djilma,Africa proconsularis,9.4227814,35.2725566,1,
Jorac,Africa proconsularis,,,1,
Jouf Saddine / Mididi,Africa proconsularis,,,1,
"Jougar, Ain / Zucchar",Africa proconsularis,9.9450299,36.2560168,10,
Jradou / Jeradou / Djeradou / Gheradou,Africa proconsularis,10.3279669,36.2709225,4,
Jual,Africa proconsularis,,,1,
"Julaydah, Bi'r al",Africa proconsularis,12.6830556,32.5747222,8,
"Kabria, Hr. / Thugga",Africa proconsularis,9.2178292,36.4354346,2,
"Kadour Ben Arh, Hr. / Kadour Ben Arfa / Thugga",Africa proconsularis,9.332757,36.443294,1,
Kairouan / Al-Qayrawan / Kairuan / Souani el-Adari / Souani ed-Adhari / Sawani al-Adhari / Iubaltianae / Themetra,Africa proconsularis,10.5603,35.920567,32,
Kalaa Djerda,Africa proconsularis,8.51892416,35.7274992,3,
Kalaa Seghira,Africa proconsularis,10.558257882800453,35.823796964701764,1,
"Kaoussat, Hr. / Gaoussat / Kaussat / Gousset / Gosset / El Gouesset / Pont-Raomein / Pont Romain / Ucubi",Africa proconsularis,8.892196,36.238518,70,
Karaat el-Bagla,Africa proconsularis,,,1,
Karabed,Africa proconsularis,,,1,
Karachoun / Khaschun / Karachoum / Besra / Muzuca,Africa proconsularis,9.805556,36.014444,45,
Karruba / Gales,Africa proconsularis,,,1,
Kasr El Oghab,Africa proconsularis,,,1,
Kasr Wasser El Haidri,Africa proconsularis,,,1,
Kasra / Kesra / Kissera / Chusira,Africa proconsularis,9.3652272,35.8140729,32,
Kasserine / El-Qasrain / Al-Qasrain / Al-Qasrayn / Gasrin / Gassrin / Cillium,Africa proconsularis,8.8364635,35.1691517,87,324694
"Katis er Remad, Hr.",Africa proconsularis,9.006819,35.251881,1,
Kbour Bou Klib,Africa proconsularis,,,1,
Kebili,Africa proconsularis,8.9705891,33.7058066,1,
Kechaichia,Africa proconsularis,,,1,
Kef,Africa proconsularis,,,1,
"Kef Bou Mous / Cheikh Ajel, Hr. / Thugga",Africa proconsularis,9.2238851,36.405571,6,
Kef Glia / Thugga,Africa proconsularis,9.3258877,36.4881973,2,
Kef Harrath / Thugga,Africa proconsularis,9.2159204,36.4407077,1,
"Kef R'aba, Hr. / Ain el Ksar / Thugga",Africa proconsularis,9.2026961,36.4304831,8,
Kef Tenoukla,Africa proconsularis,8.1801,35.3236,9,
Kef el Boum / Ammaedara,Africa proconsularis,8.017391,36.405972,2,
Kef el Ghrab / Thugga,Africa proconsularis,9.2061773,36.4262904,3,
Kef el Mechta,Africa proconsularis,10.840556,36.787777,1,
Kef en Necour,Africa proconsularis,,,1,
Kelibia / Qulaybiyah / Aspis / Clupea / Clipea,Africa proconsularis,11.098249,36.844354,74,
Keraan / Thugga,Africa proconsularis,9.4879436,36.506917,7,
"Keraan, iuxta / Thugga",Africa proconsularis,9.4989811,36.505091,1,
Kern el Kebch / Thugga,Africa proconsularis,9.1952496,36.3917357,2,
"Kessar, Hr. / Thugga",Africa proconsularis,9.3269687,36.4164888,2,
Kettana,Africa proconsularis,10.2009023,33.757713,1,
"Khadem, Hr. / Thugga",Africa proconsularis,9.2448385,36.3959593,4,
"Khadem, Hr., iuxta / Thugga",Africa proconsularis,9.241086,36.4009667,5,
"Khadhkadda, Hr.",Africa proconsularis,,,2,
Khallat Farjan,Africa proconsularis,13.2166667,32.8,1,
Khanasch,Africa proconsularis,,,1,
Khanguet El Hojjej / Khangat el-Hadjaj / Khanqat al Hajjaj / Bou Baker / Bu Beker / Khannguet el Hajaj / Neferis,Africa proconsularis,10.4071917,36.6164806,55,
Khanguet Foum el Afrit,Africa proconsularis,,,1,
Khanguet Kef Tout,Africa proconsularis,9.116667,36.900002,1,
Khanguet Safsaf,Africa proconsularis,,,3,
Khanguet el Bey,Africa proconsularis,,,5,
"Khasbat, Hr. / el-Kasba, Hr. / al-Kasbat, Hr. / Thuburbo Maius",Africa proconsularis,9.9039905,36.400355,174,315220
"Khechem el Kelb, Djebel",Africa proconsularis,8.6122222,35.0919444,29,
"Kherboug, Hr.",Africa proconsularis,8.50198,35.007713,3,
Khisbat,Africa proconsularis,,,2,
"Khmin, Hr.",Africa proconsularis,,,1,
"Khttab, Hr. / Thugga",Africa proconsularis,,,1,
Khurmat al Hatshah / Chormet el-Hantescia,Africa proconsularis,12.9858333,31.87,3,
Ki'am / Zliten,Africa proconsularis,14.433333,32.516667,2,
Kissa,Africa proconsularis,8.1091117,35.480557,8,
Korba / Qurba / Curubis,Africa proconsularis,10.857656,36.572877,14,
"Kouch Batia / Kouchbatia / Kuschbatihia / Guerouachi, Hr. / Thimida Bure / Thugga",Africa proconsularis,9.15436,36.4948414,21,
Koudia Ksour Dhomda,Africa proconsularis,9.8966667,36.2611111,4,
Koudiat Moussa,Africa proconsularis,0.47917,35.49167,1,
Koudiat Setieh,Africa proconsularis,,,2,
Koudiat an-Namsha / Thugga,Africa proconsularis,9.1805747,36.471426,3,
Koudiat-Saria,Africa proconsularis,,,3,
Kourchine,Africa proconsularis,10.867454,36.676739,1,
Kramet,Africa proconsularis,9.3167,36.3167,4,
"Krebita, Hr.",Africa proconsularis,9.92346,33.449969,1,
Krime,Africa proconsularis,,,1,
"Krourou, Hr. / Thugga",Africa proconsularis,9.2080075,36.5147065,5,
Kroussia / Hadrumetum,Africa proconsularis,10.3212831,35.7553294,1,
Ksar Beni Fredj / Ben Fredj / Kef beni Fredj / Thullium,Africa proconsularis,8.066667,36.666667,24,
Ksar Bou Fatha,Africa proconsularis,,,13,
Ksar Djaber / Qasr Jabir,Africa proconsularis,10.116667,34.666668,1,
Ksar El Atesch,Africa proconsularis,,,1,
Ksar El Guennara,Africa proconsularis,9.25278,35.97111,1,
Ksar Ghafar,Africa proconsularis,,,1,
Ksar Hellal / Qasr Hallal / Bordj Hellal,Africa proconsularis,10.8891587,35.6443501,3,
Ksar Jemajeur,Africa proconsularis,10.4407883,36.6319223,2,
Ksar Khima,Africa proconsularis,9.530278,35.857224,7,
Ksar Kuti,Africa proconsularis,,,1,
Ksar Limsa / Ksar Lemsa / Qasr Lemsa / Limisa,Africa proconsularis,9.6917636,36.0359204,186,
Ksar Madoudja / Ksar Mdouja / Civitas A[],Africa proconsularis,9.224167,35.93111,28,
Ksar Mezouar / Qasr Mezouar,Africa proconsularis,9.339275,36.780586,1,
Ksar Ouergha,Africa proconsularis,9.316667,34.783333,1,
Ksar Sidi Aich / Sidi Aich / Sidi Aisch / Sidi Aysh / Gemellae,Africa proconsularis,8.782784,34.7328593,38,
Ksar Tarcine / Qasr Tarcine / Tibubuci,Africa proconsularis,9.8003763,33.2161008,2,
Ksar Tifech / Tifech / Ksar Tiffech / Tipasa,Africa proconsularis,7.668976,36.164123,104,
Ksar Toual Zammel / Vicus Maracitanus / Maracitana,Africa proconsularis,9.222872,36.02994,27,
"Ksar Zitouna / Ain el-Zitouna / es-Zitouna, Hr.",Africa proconsularis,8.733333,34.133331,5,
Ksar ben Tralah / Ain el Kessar / Thugga,Africa proconsularis,9.2090809,36.4403531,12,
Ksar el Ahmar / Ammaedara,Africa proconsularis,,,1,
"Ksar el Arbia, Hr.",Africa proconsularis,8.5,35.716667,1,
Ksar el Asker / Civitas Nybgeniorum,Africa proconsularis,8.823902,34.048199,4,
Ksar el Garaboulli,Africa proconsularis,,,1,
Ksar el Khadem / Qasr al Khadim / Henchir Ksar-el-Khadem,Africa proconsularis,9.11658,35.38403,1,
"Ksar el Rhoula, iuxta",Africa proconsularis,9.57792,33.871584,9,
Ksar el-Ahmer,Africa proconsularis,,,1,
"Ksar et-Tir / Ksar el-Tir, Hr. / Thugga",Africa proconsularis,9.2141971,36.390506,1,
"Ksar, Hr. el / Thignica",Africa proconsularis,9.757778,35.247501,31,
Ksar-Amie / Ammaedara,Africa proconsularis,,,2,
"Ksouda, Hr.",Africa proconsularis,9.891952,35.108405,1,
Ksour-Dzemda / Vicus Annaeus,Africa proconsularis,9.906042,36.263392,4,
Kudiat El Khil,Africa proconsularis,,,5,
Kudiat Setieh,Africa proconsularis,,,7,
"Kuraymah, Saniyat al",Africa proconsularis,12.8327778,32.0391667,1,
La Goulette,Africa proconsularis,10.306839,36.817565,4,
La Soukra / Soukra / Sukrah,Africa proconsularis,10.2541752,36.867186,1,
Ladeila,Africa proconsularis,,,1,
Lalla,Africa proconsularis,8.8211161,34.3934619,1,
Lalla Dahlia,Africa proconsularis,,,15,
Lalla Messaouda,Africa proconsularis,,,1,
Lalla Zohra,Africa proconsularis,10.739444,34.751389,1,
Lallah Mabrukah,Africa proconsularis,9.187222,35.976665,1,
Lallah al Akarimiyah,Africa proconsularis,8.866667,35.75,3,
"Lallah, Wadi",Africa proconsularis,13.033333,31.433332,6,
"Lamta / Lamtah / Lemta / Dhahret Slama / Soukine / Sokrine, Hr. / Lepcis Minor",Africa proconsularis,10.8809373,35.6753306,309,
Lella Drebblia / Thugga,Africa proconsularis,9.1858337,36.4523554,1,
Lemtu,Africa proconsularis,,,1,
"Liali, Ain el",Africa proconsularis,9.7166667,37.3252778,7,
"Lorbeus, Jebel / Lorbeus, Hr. / Lares",Africa proconsularis,8.8952778,36.0625,42,
M'Daourouch / Mdaourouch / Madauros / Madaurus,Africa proconsularis,7.8212383,36.0773091,879,315065
"M'Dhakker, Ain / Mdeker, Ain / Mediccera",Africa proconsularis,10.2792795,36.200547,5,
"Mahallah, Hr. al",Africa proconsularis,10.2,34.9,3,
Mahdia,Africa proconsularis,11.068585,35.5042799,22,
Maherine / Thuburbo Minus,Africa proconsularis,9.856014,36.762253,2,
Mahjouba / Machdjuba / Madjouba / El-Ghrouss / Tituli,Africa proconsularis,8.501141,35.8093373,44,
Maiou,Africa proconsularis,9.2201016,35.2091789,3,
"Maiza, Lalla",Africa proconsularis,8.873333,36.394722,4,
Majaz al Bab / Medjez el Bab / Mejez el Bab / Membressa,Africa proconsularis,9.6146499,36.6484118,26,
"Majel, Jebel el",Africa proconsularis,10.3816667,36.29,1,
"Makhreba, Hr. / Uzita",Africa proconsularis,10.75396,35.68702,3,
Maktar / Makthar / Mactar / Makthars / Mactaris,Africa proconsularis,9.2014433,35.8571565,699,324774
Mansoura,Africa proconsularis,8.9369537,33.724912,5,
Manzil Bu Zalafah,Africa proconsularis,10.5830644,36.6832659,1,
"Marakib, Hr. al",Africa proconsularis,9.0167,34.7833,1,
Mareth / Martae,Africa proconsularis,10.2882317,33.617159,2,
"Marja, Hr. / Oued El Klegh, Hr. / Thugga",Africa proconsularis,9.3454589,36.4093564,1,
"Marqab, Ra's al",Africa proconsularis,13.4552778,32.4036111,1,
Marsa Dila,Africa proconsularis,12.75,32.799999,1,
Masakin,Africa proconsularis,10.5802503,35.7255757,1,
Maschrek esch-Schems,Africa proconsularis,,,2,
Mateur / Matera,Africa proconsularis,9.6674325,37.0384593,11,
"Matria, Hr. / Maatria / Sidi Akrout / Numlulis / Thugga",Africa proconsularis,9.2185806,36.522942,67,
Mchich,Africa proconsularis,,,2,
Md Ben Hasneoui / Ammaedara,Africa proconsularis,,,4,
Md Ben Nasser / Ammaedara,Africa proconsularis,,,2,
Mechdoug,Africa proconsularis,,,1,
Mechentel,Africa proconsularis,,,1,
Mechmech,Africa proconsularis,9.7260542,37.2462315,1,
"Mechri, Hr. / Oued Hanach / Res publica Clul / Thugga",Africa proconsularis,9.2454462,36.5193966,3,
Mechta Hennchir Hedil,Africa proconsularis,8.743932,36.452744,5,
Mechta Koudiat es Sid,Africa proconsularis,6.441725,36.058586,1,
Mechta Medjez Ahmar,Africa proconsularis,7.46,35.9799999,3,
Mechta Oulad Selem,Africa proconsularis,6.550833,36.266666,4,
Mechta Rous ed Dis,Africa proconsularis,7.798628,36.134972,1,
"Mechta ben Jaoud / H'Rich, Hr. / Thugga",Africa proconsularis,9.184926,36.4367347,4,
Mechtat el Matroa,Africa proconsularis,8.28,36.71,1,
"Meded, Hr. / Midid, Hr. / Medded, Hr. / Mididi",Africa proconsularis,9.057096,35.806271,89,
"Medeina, Hr. / Mdeina / Mada'inah / Althiburos",Africa proconsularis,8.82952745,35.8879032,117,
Medenine,Africa proconsularis,10.4910529,33.3434395,2,
Medila,Africa proconsularis,,,2,
Medjez Sfa,Africa proconsularis,7.7839301,36.4330511,4,
Medjez el-Djidiane,Africa proconsularis,,,1,
"Meger, Hr.",Africa proconsularis,,,2,
Meninge / Bordj Tuta,Africa proconsularis,10.911785,33.691894,3,
Menzel Abderrahman,Africa proconsularis,9.8738907,37.2418804,22,
"Menzel El Gorschi, Hr. / Thub[3]",Africa proconsularis,,,1,
Menzel Yahia-Tafekbsite,Africa proconsularis,,,1,
"Merah, Hr. / Suo",Africa proconsularis,9.645585,36.317358,4,
"Merifek, Hr.",Africa proconsularis,,,1,
Merja,Africa proconsularis,10.3681,36.4436,2,
"Merthoum, Hr. el / Sufes",Africa proconsularis,,,1,
Meschertat,Africa proconsularis,,,1,
Mesguida / Culusa,Africa proconsularis,10.584929,36.68135,1,
Meskale,Africa proconsularis,,,1,
Meskiana / La Meskiana,Africa proconsularis,7.6694143,35.6291407,1,
"Meskina, Hr. el",Africa proconsularis,9.353611,35.181667,3,
Mesloula,Africa proconsularis,7.8299965,35.8681059,1,
Mesmar,Africa proconsularis,,,2,
Messis,Africa proconsularis,,,2,
"Mest, Hr. / Mist / el-Oust, Hr. / El Ust / el-Berrouigue, Hr. / Ain Gueliane / Mustis",Africa proconsularis,9.1435996,36.3354139,200,
Metherchem / Ammaedara,Africa proconsularis,,,1,
"Metkides, Hr. al / Magifa / Tinfadi",Africa proconsularis,8.65,34.85,32,
Metouia,Africa proconsularis,10.0052044,33.9591353,4,
"Mettich, Hr. / Mappalia Siga",Africa proconsularis,9.366642,36.569468,1,
Meyala,Africa proconsularis,,,2,
Mezel-Konzia,Africa proconsularis,,,1,
Mezert,Africa proconsularis,,,1,
Mhadhba / Hadrumetum,Africa proconsularis,10.4379924,35.995079,1,
Mheimes,Africa proconsularis,,,1,
Micca Village,Africa proconsularis,,,1,
Miza,Africa proconsularis,,,1,
Mnia,Africa proconsularis,,,41,
Mograwa,Africa proconsularis,,,8,
Mohammed ben Hasneoui / Ammaedara,Africa proconsularis,,,1,
Mohammed ben Nasser / Ammaedara,Africa proconsularis,,,3,
Mohammed el Bordji,Africa proconsularis,,,1,
Mohammedia / Sidi Ali el Sefini / Al Muhammadiyah / Thimida Regia,Africa proconsularis,10.1535196,36.6755608,15,
Moknine / Al Muknin,Africa proconsularis,10.9003897,35.631675,1,
Monastir / Al Munastir / Tennir / Ruspina,Africa proconsularis,10.8272336,35.7709638,7,
Morabba,Africa proconsularis,,,4,
Moregan,Africa proconsularis,,,1,
Mornag,Africa proconsularis,10.2902721,36.6818188,4,
Morsott / Morsot / Vasampus,Africa proconsularis,8.0102728,35.6717654,45,
Moulares / Umm Al Arais,Africa proconsularis,8.2733836,34.485737,1,
Moulins,Africa proconsularis,,,1,
Moureddine,Africa proconsularis,10.5405962,35.7567655,2,
"Moussa, Hr. / Thugga",Africa proconsularis,9.3166514,36.4852977,8,
Mrowa,Africa proconsularis,,,3,
Msa,Africa proconsularis,,,1,
Munizip Mizda / Mizdah,Africa proconsularis,12.9799549,31.4546104,1,
"Musayrib, Khanqat al",Africa proconsularis,9.6133333,35.9841667,1,
Mzareg es Semech,Africa proconsularis,,,3,
Mzura,Africa proconsularis,,,1,
"Naam, Hr. en / Abbir Cellae / Abbir Cella",Africa proconsularis,9.844189,36.466607,10,
Nabeul / Nebel Kedim / Neapolis,Africa proconsularis,10.7369824,36.4487668,27,
Naimine er-Rodoui,Africa proconsularis,,,1,
Nasr Allah / Sidi Nasseur Allah / Sidi Ali Ben Nasr Allah,Africa proconsularis,9.8275341,35.3528682,5,
"Nebhana, Hr. / Nepajana / Thambaiae",Africa proconsularis,10.024832,35.922848,10,
Nefidhet el Mecid,Africa proconsularis,,,1,
Nefta / Naftah / Nepte,Africa proconsularis,7.880785,33.8719976,3,
Nefza,Africa proconsularis,9.0748455,36.9748241,3,
"Negachia, Hr.",Africa proconsularis,9.256019,36.8345,8,
Nibbar / Nibber / Nebeur,Africa proconsularis,8.7713168,36.3050927,14,
Niimi,Africa proconsularis,,,1,
Oghab,Africa proconsularis,,,1,
Oglet el Khfifia / Bordj Younga / Macomades Minores,Africa proconsularis,10.497324,34.525858,3,
Ouachouache,Africa proconsularis,7.719013,35.7943,2,
Ouchtetta,Africa proconsularis,,,1,
"Oudeka, Hr. / Semmech, Hr. / Aptucca / Aptuca",Africa proconsularis,8.940301,36.409344,7,
"Oudna, Hr. / Udhnah / Uthina",Africa proconsularis,10.1820304,36.60005,228,315247
Oued Beni Guedal,Africa proconsularis,10.819373,32.096027,1,
Oued Bezirk,Africa proconsularis,10.632534,36.721033,1,
Oued Charaia,Africa proconsularis,,,3,
Oued Chouk,Africa proconsularis,7.90991,36.212612,1,
Oued Errecac,Africa proconsularis,,,13,
Oued Ez Zit / Sainte Marie du Zit,Africa proconsularis,10.3025876,36.4173839,8,
"Oued Guelat el Bel / Guennaouch, Hr. / Thugga",Africa proconsularis,9.1754059,36.434777,1,
Oued Hadifa,Africa proconsularis,9.57235,34.09427,14,
Oued Harmoucha / Thugga,Africa proconsularis,9.2309,36.511514,1,
Oued Laya,Africa proconsularis,10.55,35.833333,4,
Oued Maarouf,Africa proconsularis,9.8042143,36.0352589,1,
"Oued Magroune, iuxta",Africa proconsularis,9.675384,33.897407,42,
Oued Mellegue,Africa proconsularis,8.8260729,36.4966057,26,
Oued Melliz / Simitthus,Africa proconsularis,8.5500007,36.4678121,1,
Oued Romel / Oued Remel / Rumel / Thugga,Africa proconsularis,9.1996713,36.3703658,4,
"Oued Romel / Oued Remel / Rumel, iuxta / Thugga",Africa proconsularis,9.2083401,36.3756506,1,
Oued Tebaga,Africa proconsularis,,,2,
Oued Tessaa,Africa proconsularis,-1.865424,35.100159,1,
Oued Zerga / Sicca Veneria,Africa proconsularis,8.7517,36.2814,4,
Oued Zeus / Oued ez Zeuss / Oued Zoess / Wadi al Jiss,Africa proconsularis,10.38333,33.58333,2,
Oued el Ferd / Wadi al Fard,Africa proconsularis,10.220356,33.757259,1,
Oued el Firane,Africa proconsularis,4.073309,31.938536,2,
Oued el Gabel / Oued el Goubel / Wadi al-Qabil,Africa proconsularis,10.61667,32.83333,35,
Oued el Ghelaa,Africa proconsularis,9.93067,37.185612,1,
Oued el Kohl / Ammaedara,Africa proconsularis,8.533333,35.599998,4,
Oued el Ouaar,Africa proconsularis,,,1,
Oued en Nhal,Africa proconsularis,9.924444,36.428333,2,
Oued er Rmel,Africa proconsularis,8.54626,36.168125,3,
Oued-el-Ain / Thugga,Africa proconsularis,9.2463072,36.4144476,4,
Oueslatia / Weslatia,Africa proconsularis,9.5932661,35.8476563,3,
Ouled Haffouz,Africa proconsularis,9.872202,35.081912,1,
Ouled Saad,Africa proconsularis,9.9864871,34.9802777,3,
Ouled Sellam,Africa proconsularis,5.8836213,35.8263866,1,
Ouled ben Abid,Africa proconsularis,,,1,
Ouled-ed-Djenna,Africa proconsularis,,,18,
Oum Ali / Umm Ali,Africa proconsularis,8.3007443,35.0113285,11,
Oum ed Debban,Africa proconsularis,,,3,
"Oum el-Abouab, Hr. / Um el-Abuab / Umm el-Abuab / Seressi / Municipium Seressitanum",Africa proconsularis,9.80968815,36.1822327,17,
Oum-ech-Chellig / Uzali Sar / Felicitani,Africa proconsularis,9.648624,36.830987,1,
Oumcetren,Africa proconsularis,,,1,
Ousapha,Africa proconsularis,,,2,
Ousfane el Arba / Ammaedara,Africa proconsularis,,,1,
"Oust, Hr. el",Africa proconsularis,9.6278436,36.4287862,1,
Ouzra / Henchir Ouzra / Abzira / Abdira / Auzira,Africa proconsularis,10.2446,36.655352,3,
Pavillier,Africa proconsularis,9.854637,35.424877,1,
Praedia Pullaienorum / Thugga,Africa proconsularis,9.1175055,36.4284165,2,
Qabilat Silin,Africa proconsularis,14.173889,32.668056,1,
Qabilat al Qalil / Umm el Msareb,Africa proconsularis,13.99,32.5825,1,
Qalat-As-Sanan,Africa proconsularis,8.3444393,35.7643288,2,
"Qamarah, Bi'r al",Africa proconsularis,11.0052778,35.0727778,1,
"Qani, Wadi",Africa proconsularis,13.03708,31.819124,5,
Qarish al Wadi / Grich el Oued / Krich el Oued / Krisch El Waid / Thisiduo,Africa proconsularis,9.666667,36.683333,6,
Qarqarish / Oea,Africa proconsularis,13.107778,32.86972,1,
Qaryat al Amruni,Africa proconsularis,12.634167,32.131111,1,
Qaryat al Hallufah,Africa proconsularis,14.45255,32.412979,4,
Qasr Dhu'ayb,Africa proconsularis,12.472019,31.653933,4,
Qasr Dughah / Gasr Doga / Ras el Halga,Africa proconsularis,13.698419,32.486542,4,
"Qasr Ghilan / Ksar Ghilane / Ksar Ghelane / Ksar Rhilane / Ghaylan, Wadi / Tisavar",Africa proconsularis,9.63598371,32.9799959,7,
Qasr Isawi,Africa proconsularis,14.704646,31.461703,1,
Qasr Manarah,Africa proconsularis,10.516667,36.349998,2,
Qasr Wamis / Gasr Uames / Scereb Eddiba,Africa proconsularis,12.66911,31.642448,2,
Qasr al Ahmar,Africa proconsularis,9.45,34.599998,3,
"Qasr al Arabiyah, Hr.",Africa proconsularis,8.5,35.7167,1,
Qasr al Hadid,Africa proconsularis,9.1,36.65,1,
Qasr al Hammam,Africa proconsularis,9.933333,34.866669,1,
Qasr al Jazirah,Africa proconsularis,12.404346,32.016354,1,
Qasr al Qusaybah,Africa proconsularis,9.241667,35.900276,2,
Qasr at Turab / Arae Philaenorum,Africa proconsularis,18.792398,30.299503,2,
"Qirrim, Wadi",Africa proconsularis,13.982222,32.634167,1,
Quballat / Guebellat,Africa proconsularis,9.6632318,36.5399912,18,
"Qullah, Hr. al",Africa proconsularis,8.4667,34.8667,1,
"Qusayr al Ful, Hr.",Africa proconsularis,8.6,34.85,1,
Ra's al Jabal,Africa proconsularis,10.12313,37.225342,1,
Ra's at Tib / Cape Bon,Africa proconsularis,11.0416578,37.0836241,2,
Rabha,Africa proconsularis,,,1,
Rades / Maxula,Africa proconsularis,10.276969,36.774402,12,315072
Raf Raf,Africa proconsularis,10.194583,37.189028,1,
"Ramdam, Hr.",Africa proconsularis,10.2272,35.1717,1,
Ras Kaboudia / Bordj Khadidja / Caput Vada,Africa proconsularis,11.1588889,35.2236111,1,
Ras el Ain Tlalet / Talalati,Africa proconsularis,10.384167,32.966369,3,
Ras el Mergeb,Africa proconsularis,14.2333333,32.6333333,1,
Ras el-Uadi / Ra's al Wadi,Africa proconsularis,12.8505556,32.0647222,3,
Rasfet ej-Jbel,Africa proconsularis,,,1,
"Rashiq, Bilad",Africa proconsularis,8.684183,35.043026,5,
"Rashiq, Wadi ar",Africa proconsularis,10.083333,34.433334,11,
Rass Dimess / Rass Dimasse / Ras Dimas / Dimass / Thapsus,Africa proconsularis,11.0460745,35.6176098,7,
"Rechga, Kaf",Africa proconsularis,9.0505556,36.6577778,2,
Redir el Fras,Africa proconsularis,,,1,
Refana,Africa proconsularis,,,1,
"Reguiba, Khanguet",Africa proconsularis,7.8833333,35.1833333,1,
"Rekoub, Hr. / Rucuma",Africa proconsularis,9.474167,37.053612,4,
"Relilaia, Teniet",Africa proconsularis,7.6880556,35.0408333,1,
Remada / Tillibari,Africa proconsularis,10.3962005,32.3153893,10,
Renich,Africa proconsularis,,,1,
"Ressas, Chabet er",Africa proconsularis,0.878056,35.868889,2,
"Rhiria, Hr.",Africa proconsularis,9.100011,36.716673,1,
Rihana,Africa proconsularis,8.944906,36.235355,1,
Rmada,Africa proconsularis,7.773899,35.807045,1,
"Rniktijmel, Hr.",Africa proconsularis,,,4,
Rougga / Bararus,Africa proconsularis,10.791179,35.211896,1,
Roumana Dahraweya / Roumana,Africa proconsularis,4.2795911,35.2214758,4,
Roumieh,Africa proconsularis,,,1,
Routitila,Africa proconsularis,,,1,
Rouzou,Africa proconsularis,,,1,
Ruhia,Africa proconsularis,,,1,
"Saadane, Hr.",Africa proconsularis,10.658333,33.481945,1,
"Sabbah, Ayn as / Vaga",Africa proconsularis,9.0833333,36.8,1,
Sabratah / Sabrata / Siburata / Sabratha,Africa proconsularis,12.4826746,32.7906211,279,
Sahraoui,Africa proconsularis,3.1786598,36.5945756,1,
Saida / Tunes,Africa proconsularis,10.168285,36.80692,1,
Sakiet Sidi Youssef / Saqiyat Sidi Yusuf / Sidi Yussef / Naraggara,Africa proconsularis,8.3547342,36.2220401,38,
Salah Ben Belgessem,Africa proconsularis,,,1,
"Sallakta, Hr. / Salakta / Sillakta / Arsch Zara / Sullecthum / Sullectum",Africa proconsularis,11.0429292,35.3937926,25,
"Sammaa, Hennchir",Africa proconsularis,8.316667,35.533333,3,
"Saqy, Hr. as",Africa proconsularis,8.8333,34.1167,5,
Saraia,Africa proconsularis,,,1,
"Saroula, Hr.",Africa proconsularis,9.891111,36.834721,1,
"Sawatir, Hanshir as",Africa proconsularis,8.366667,34.533333,6,
Sawfajjin,Africa proconsularis,12.194068,31.825272,4,
"Sbeitla / Subaytilah / el-Ouara, Hr. / Oued Cheria / Oued ech-Cheraya / Scheria / Sufetula",Africa proconsularis,9.12284876,35.232803,380,324816
Sbiba / Sabibah / Sufes,Africa proconsularis,9.06951312,35.5442284,53,
Scemech / Shemech,Africa proconsularis,13.968777,31.394839,1,
Seba Regoud,Africa proconsularis,9.520556,35.487499,2,
Sebbalet el Bey,Africa proconsularis,,,1,
Sed el Youdi,Africa proconsularis,8.3884831,35.8449567,2,
"Segdel, Wadi",Africa proconsularis,10.4,33.483334,2,
Segjeg,Africa proconsularis,,,1,
Segui / Bled Segui,Africa proconsularis,8.729242,34.14815,8,
"Seheli, Hr. / Civitas Saraditana",Africa proconsularis,9.601684,36.092496,5,
Seifia,Africa proconsularis,,,1,
Senhadja,Africa proconsularis,,,1,
"Serrak, Ain es",Africa proconsularis,9.45,35.9333333,1,
Sfax / Taparura,Africa proconsularis,10.7600021,34.7397986,56,
Sguidan / Anastasiana,Africa proconsularis,,,1,
Sguigga,Africa proconsularis,,,5,
Shawash / Suas,Africa proconsularis,9.55,36.716667,8,
"Shirkat ar Rahhal, Hr.",Africa proconsularis,8.91667,34.98333,25,
"Shuqayqah, Bi'r ash",Africa proconsularis,12.75,31.6166667,2,
"Shuraqa', Hr. ash",Africa proconsularis,8.5,34.683334,6,
Si Ali ben Khaled,Africa proconsularis,,,1,
Si Amra,Africa proconsularis,,,4,
Si Aoun / Praesidium [],Africa proconsularis,10.039444,32.202222,2,
Side-Medien / Vallis / Carthago,Africa proconsularis,9.75,36.75,1,
"Sidi Abd El Basset, Hr.",Africa proconsularis,9.646291,36.875004,6,
Sidi Abd el Kerim / Sabzia,Africa proconsularis,9.812778,36.330833,2,
Sidi Abd er Rebbu,Africa proconsularis,,,1,
Sidi Abdallah / Fundus Bassianus,Africa proconsularis,9.77971,37.313023,9,
Sidi Abdallah Bou el-Behaim,Africa proconsularis,,,6,
Sidi Abdallah Melliti / Ain Melliti / Thugga,Africa proconsularis,9.17320123,36.4975536,1,
Sidi Abdallah Zehdi,Africa proconsularis,,,1,
Sidi Abdallah ech Cheid,Africa proconsularis,9.3,36.400002,1,
Sidi Acem,Africa proconsularis,,,1,
Sidi Achmed ben Abd el Mlek,Africa proconsularis,,,1,
Sidi Adda,Africa proconsularis,,,2,
Sidi Ahmad al Jadidi,Africa proconsularis,9.519538,36.658787,4,
Sidi Ahmar,Africa proconsularis,,,1,
Sidi Ahmed Salah,Africa proconsularis,,,1,
Sidi Ahmed el Hacheni / Sidi Ahmed al Hachani / Sidi Ahmad al Hashshani / Sidi Hameds el Hacheni / Civitas Cit[],Africa proconsularis,8.933333,35.866669,4,
Sidi Ain Debba / Thugga,Africa proconsularis,9.1886492,36.4463935,1,
Sidi Ali Ben Abdallah,Africa proconsularis,,,1,
"Sidi Ali Ben Ahmar, Hr. / Sidi Ali Ben Amar, Hr.",Africa proconsularis,,,4,
Sidi Ali Ben Brahim / Ammaedara,Africa proconsularis,8.471772,35.570026,38,
Sidi Ali al Bahlul / Sidi Ali el-Bahloul,Africa proconsularis,11.039167,35.391666,5,
Sidi Ali al Farjani,Africa proconsularis,21.6,32.900002,1,
Sidi Ali al-Agab / Ain Teki / Ain Taki / Pagus Tach[] / Thugga,Africa proconsularis,9.2156634,36.3506788,3,
"Sidi Ali bel Kassem / Sidi Ali Belkacem / Sidi Ali Belkassem, Hr. / Sidi Ali Ben Kassem / Thuburnica",Africa proconsularis,8.467818,36.526159,243,
Sidi Amar,Africa proconsularis,7.7206192,36.8214092,2,
Sidi Amara / Avioccala,Africa proconsularis,9.720033,36.200459,12,
"Sidi Amara, Hr. / el-Khima, Hr. / Khima, Hr. / Agger",Africa proconsularis,9.5156285,35.8626025,66,
"Sidi Ameur, Hr.",Africa proconsularis,9.950543,36.460813,1,
Sidi Amor el-Jedidi / Sivalis / Civitas Sivalitana,Africa proconsularis,9.78081,36.027331,17,
Sidi Athman el Hadid,Africa proconsularis,9.916667,36.966667,2,
Sidi Bader,Africa proconsularis,8.8025,36.94389,6,
"Sidi Baiesch, Hr.",Africa proconsularis,,,2,
Sidi Behloul,Africa proconsularis,,,2,
Sidi Bellaoui,Africa proconsularis,8.977077,36.416215,1,
Sidi Belloul,Africa proconsularis,,,1,
Sidi Ben Aiech,Africa proconsularis,8.116667,35.483334,2,
Sidi Ben Aisa,Africa proconsularis,,,2,
"Sidi Ben Nour, Hr.",Africa proconsularis,10.313763,36.6181,6,
Sidi Bou Ali,Africa proconsularis,10.470397,35.9563486,18,
Sidi Bou Arkoub / Sidi Bu Urqub,Africa proconsularis,10.562168,36.550533,2,
Sidi Bou Atila / Sidi Bu Atila / Thugga,Africa proconsularis,9.2075006,36.3764604,14,
Sidi Bou Baker / Mustis,Africa proconsularis,8.55,35.3167,4,
Sidi Bou Garnoug,Africa proconsularis,,,1,
Sidi Bou Hamida,Africa proconsularis,,,2,
Sidi Bou Hassen,Africa proconsularis,,,1,
Sidi Bou Kraroub,Africa proconsularis,,,1,
Sidi Bou Melika,Africa proconsularis,,,1,
Sidi Bou Ranem / Sidi Bou Rhanem / Sidi Bu Ghanim,Africa proconsularis,8.383333,35.916668,19,
Sidi Bou Rharnoug,Africa proconsularis,8.931667,36.140556,2,
Sidi Bou Rouis / Sidi bu Ruis,Africa proconsularis,9.1250941,36.1753222,7,
Sidi Bou Skikine,Africa proconsularis,9.711111,35.401112,1,
Sidi Brahim / Ad Molas?,Africa proconsularis,7.886012,36.117651,4,
Sidi Bu Aslai,Africa proconsularis,,,2,
Sidi Buker,Africa proconsularis,,,1,
Sidi Cheidi / Sidi Abdallah ech-Cheidi / Thugga,Africa proconsularis,9.3062983,36.3999938,10,
Sidi Daoud / Missua,Africa proconsularis,10.9134484,37.0213301,17,
"Sidi Denden, Koubba",Africa proconsularis,7.771572,36.72887,2,
Sidi Dhaouai Rouhou,Africa proconsularis,,,1,
Sidi El Ayadi,Africa proconsularis,,,2,
Sidi El Heni / Sidi El Hani / Sidi el Hasni,Africa proconsularis,10.3118167,35.6809917,6,
Sidi Ghazelli,Africa proconsularis,,,5,
Sidi Ghrib,Africa proconsularis,8.867222,36.830276,2,
Sidi Gnaui / Timezegeri Turris,Africa proconsularis,9.76669,33.733205,3,
Sidi Habich,Africa proconsularis,,,1,
Sidi Hamza,Africa proconsularis,9.030556,35.630001,4,
Sidi Hani / Vicus Augusti,Africa proconsularis,9.353333,35.328335,7,
Sidi Jdidi / Aradi,Africa proconsularis,9.6241481,36.3510552,156,
Sidi Kaddou,Africa proconsularis,,,1,
Sidi Kelboussi,Africa proconsularis,10.640365,36.713043,1,
Sidi Khalifa / Sidi Khelifa / Henchir Sidi Khalifa / Pheradi Maius,Africa proconsularis,10.398315,36.249677999999996,14,
Sidi Khalifa / Sidi Khelifa / Turris Rutunda,Africa proconsularis,10.386576,36.260237,4,
Sidi Krib / Thugga,Africa proconsularis,9.252448,36.3715365,2,
Sidi Mansour,Africa proconsularis,9.9380216,37.1050505,1,
Sidi Marched,Africa proconsularis,9.8,35.687778,5,
Sidi Marzouk Tounsi,Africa proconsularis,,,1,
"Sidi Median, Hr. / Vallis",Africa proconsularis,9.734207,36.613435,23,
"Sidi Merzoug, Hr. / Castellum",Africa proconsularis,8.792195,36.2931,44,
Sidi Meskine / Thunusuda,Africa proconsularis,8.65918386,36.4490244,1,
Sidi Messaoud,Africa proconsularis,,,4,
Sidi Mohamed ben Khelifa,Africa proconsularis,,,2,
Sidi Mohammed Ben Brahim,Africa proconsularis,,,1,
"Sidi Mohammed El Azreg, Hr.",Africa proconsularis,8.476111,36.418056,4,
Sidi Mohammed Lazrag,Africa proconsularis,,,3,
Sidi N'sir,Africa proconsularis,9.443916,36.894393,1,
Sidi Naoui / Sidi Naui,Africa proconsularis,9.786979,36.249239,4,
Sidi Nasser,Africa proconsularis,,,2,
"Sidi Reiss, Hr. / Sidi er Reis / Sidi ar Ra'is / Aulodes",Africa proconsularis,9.598251,36.825211,3,
Sidi Sahbi,Africa proconsularis,9.245,35.77972,3,
Sidi Salah el Balti,Africa proconsularis,8.940556,36.711388,6,
Sidi Salem,Africa proconsularis,,,1,
"Sidi Slimane, Hr.",Africa proconsularis,9.8611,36.3183,2,
"Sidi Soltan, Hr. / Sidi Soltane",Africa proconsularis,9.000833,35.696945,16,
Sidi Tahar,Africa proconsularis,,,1,
Sidi Yahia,Africa proconsularis,,,3,
Sidi Zehili / Civitas Avensensis,Africa proconsularis,9.129594,36.617302,3,
Sidi as-Sayd / Sidi el-Sayd / Borgo Tazzoli,Africa proconsularis,13.479417,32.334617,2,
Sidi ash Shammakh,Africa proconsularis,11.0297699,33.590881,1,
Sidi ben Amar,Africa proconsularis,,,1,
Sidi bu Gossa,Africa proconsularis,,,2,
Sidi el Abbasi,Africa proconsularis,6.713956,36.12944,2,
Sidi el Titouhi,Africa proconsularis,9.171086,36.296036,7,
"Sidi-Barka, Hr.",Africa proconsularis,,,3,
Sidi-Bou-Argoub / Tazma / Thimisua,Africa proconsularis,9.319272,36.310747,7,
Sidi-ech-Chaffei / Thala,Africa proconsularis,,,1,
"Sif, Ain es",Africa proconsularis,9.8777778,36.0197222,2,
Siliana / Silyanah,Africa proconsularis,9.3743733,36.0846651,6,
"Sinngaris, Hr. / Singaris / Cincaris",Africa proconsularis,9.760881,36.781444,15,
Sirte / Marcomades Selorum,Africa proconsularis,16.5836206,31.2059625,67,
Skhira / Skira,Africa proconsularis,10.0681726,34.2988669,7,
Skiffa,Africa proconsularis,,,1,
Slah,Africa proconsularis,,,2,
Sliman / Carthago,Africa proconsularis,,,1,
Smadah / Siviri,Africa proconsularis,,,6,
Smala,Africa proconsularis,8.7833,35.4,1,
Smidia,Africa proconsularis,,,3,
Sminja / Saminjah,Africa proconsularis,10.0238204,36.45481,2,
Smirat,Africa proconsularis,,,1,
Snane Ali Fatha,Africa proconsularis,9.8397222,35.0063889,1,
"Snobbeur, Hr.",Africa proconsularis,9.690507,36.442544,6,
Soliman,Africa proconsularis,10.490706,36.6956264,13,
Sommet el Amra,Africa proconsularis,,,1,
Souaira,Africa proconsularis,,,1,
"Souda, Jebel es?",Africa proconsularis,9.527152,35.129993,1,
"Soudga, Hr. / Sudga, Hr. / Urusi",Africa proconsularis,9.577272,35.987089,7,
Souk Tleta / Suk Tleta,Africa proconsularis,-1.9967832,35.0270945,1,
"Soussa, Hr. / Thugga",Africa proconsularis,9.1497288,36.4359084,5,
Sousse / Hadrumetum,Africa proconsularis,10.640525,35.828829,778,324716
Sra Wartan,Africa proconsularis,,,19,
Sriu,Africa proconsularis,,,4,
"Suffit, Hr. / Jefren / Yefren / Yafran",Africa proconsularis,12.527651,32.063839,5,
Sursef,Africa proconsularis,,,6,
"Tabbet el Ksir, Hr.",Africa proconsularis,9.778056,36.142502,2,
Tafelloune,Africa proconsularis,10.898378,36.695591,1,
Tagiura / Tajoura,Africa proconsularis,13.3525476,32.8834447,6,
"Taglissi, Hr.",Africa proconsularis,13.083053,32.065701,16,
Takilsa / Taklisah,Africa proconsularis,10.6295091,36.792339,1,
Takrouna / Takrunah,Africa proconsularis,10.350369,36.1443836,6,
Takusch,Africa proconsularis,,,2,
"Tamesmida, Hr.",Africa proconsularis,8.416616,35.099985,7,
Tandjak,Africa proconsularis,,,1,
Taoura / Taura / Thagura,Africa proconsularis,8.042039,36.167061,77,
Tarf ech Chena / Apisa Maius,Africa proconsularis,9.711194,36.343341,24,
"Tarf el-Chena, Hr. / Tarf ech-Chena, Hr. / Apisa Minus",Africa proconsularis,9.7417,36.3325,1,
Tarhunah,Africa proconsularis,13.6381338,32.4359687,8,
Tariglach,Africa proconsularis,,,1,
Tataouine / Tatahouine,Africa proconsularis,10.450413,32.9315727,2,
"Tebaga, Hr.",Africa proconsularis,8.383614,36.482756,1,
Tebaga-Clausura,Africa proconsularis,9.618772,33.669719,2,
"Tebbala, Hr. / Thugga",Africa proconsularis,9.267522,36.4115858,2,
"Tebbala, Hr., iuxta (1) / Thugga",Africa proconsularis,9.2694115,36.4097998,1,
"Tebbala, Hr., iuxta (2) / Thugga",Africa proconsularis,9.2570142,36.4145052,1,
Tebessa / Theveste,Africa proconsularis,8.1212322,35.4035956,927,324831
Tebourba / Thuburbo Minus,Africa proconsularis,9.8418371,36.8324189,24,
Teboursouk / Tabursuq / Thibursicum Bure,Africa proconsularis,9.24585752,36.4577882,277,
"Tell el Caid, Hr. / Tell el Gaid / el Tlit, Hr. / Thagari Maius / Thagori Maius",Africa proconsularis,9.947919,36.446852,5,
Tella,Africa proconsularis,9.7617,35.6825,1,
Tellet-Fouzar,Africa proconsularis,,,1,
Telmine / Torra / Turris Tamalleni,Africa proconsularis,8.9173288,33.7171886,25,
Telt Duames,Africa proconsularis,,,2,
Temtilio,Africa proconsularis,,,1,
"Tepelte / Bel Aiet, Hr. / Blaiet / Tepeltensis",Africa proconsularis,9.765278,36.398888,8,
"Tercha, El Kseur",Africa proconsularis,10.4728958,36.7395226,6,
"Terjba, Kef",Africa proconsularis,8.9780556,36.7269444,2,
Testour / Tastur / Tichilla,Africa proconsularis,9.4418606,36.5520138,100,
Thala / Talah,Africa proconsularis,8.6709337,35.5718133,224,
Thelepte / Medinet el Kdima / Medinet el-Kedima / Medinet el-Khadima / Makdudesch / Mekdoudeche / Furriyanah / Feriana,Africa proconsularis,8.59414353,34.9815659,73,
Thibar / Tibar / Belloum / Thibaris,Africa proconsularis,9.1059907,36.5224445,73,
Thicilila,Africa proconsularis,,,1,
"Thina, Hr. / Tina / Thaenae / Thenae",Africa proconsularis,10.676389,34.654167,171,324825
"Thmed, Hr. / Sufes",Africa proconsularis,6.84278,35.4475,7,
Thouighiba,Africa proconsularis,,,1,
Thrayet / Hadrumetum,Africa proconsularis,10.6527854,35.7539452,2,
Tindouf*,Africa proconsularis,,,3,
"Tine, Fedj et",Africa proconsularis,7.5005556,35.5538889,1,
Tleta Djouama,Africa proconsularis,,,2,
Tlil Bou Eukka,Africa proconsularis,,,3,
"Tobel, Hr.",Africa proconsularis,10.4,33.533333,1,
Tombra,Africa proconsularis,,,5,
"Torkhana, Hr.",Africa proconsularis,,,3,
Touireuf,Africa proconsularis,,,1,
Toukaber / Tukabur / Tuccabor,Africa proconsularis,9.5211234,36.7081535,23,
Toum el Macera,Africa proconsularis,10.6844,34.8161,1,
"Toungar, Hr. / Cincaris",Africa proconsularis,9.74498,36.77692,1,
Touza / Tuzah,Africa proconsularis,10.8278529,35.6319855,1,
Tozeur / Toser / Tawzar / Tusuros,Africa proconsularis,8.1368866,33.9235059,5,
Tripoli / Tarabulus el-Gharb / Oea,Africa proconsularis,13.1777744,32.8966761,51,
Tuila,Africa proconsularis,,,2,
Tuit,Africa proconsularis,,,4,
Tunis / Tunes,Africa proconsularis,10.1856909,36.8001926,117,
Turdjmaen,Africa proconsularis,,,1,
Turki,Africa proconsularis,10.517143,36.573868,1,
"Tut, Hr.",Africa proconsularis,9.467527,36.884595,2,
Uadi er-Rsaf / Leptis Magna,Africa proconsularis,14.29061,32.63897,2,
Ubeira,Africa proconsularis,,,1,
Uled Djentura,Africa proconsularis,,,3,
Uled Dramenna,Africa proconsularis,,,1,
"Umm Izz, Shubat",Africa proconsularis,13.25,30.6167,1,
"Umm al Abbas, Wadi",Africa proconsularis,9.800392,33.427185,3,
"Umm al Ali, Bi'r",Africa proconsularis,9.1666667,34.15,4,
"Umm al Ullayq, Wadi",Africa proconsularis,13.016667,31.700001,1,
"Uqlat al Jufayrat, Bi'r",Africa proconsularis,12.5333333,31.5833333,1,
Utique / Utica,Africa proconsularis,10.0580281,37.0557743,140,315248
"Wadah as Saghirah, Hr. al",Africa proconsularis,10.25,34.7667,27,
Wadi Ghalbun,Africa proconsularis,13.94241,31.75773,1,
Wadi Kanafis,Africa proconsularis,14.4799,31.23134,1,
Wadi Meaunia,Africa proconsularis,,,1,
Wadi Qani,Africa proconsularis,13.03708,31.819124,1,
Wadi Sarrat,Africa proconsularis,8.616667,35.766667,1,
Wadi Tareglet,Africa proconsularis,,,2,
Wadi Umm el Agerem,Africa proconsularis,,,1,
Wadi Zamzam,Africa proconsularis,15.283333,31.4,1,
Wadi el-Amud,Africa proconsularis,13.27312,31.075342,1,
Wadi et-Tualeb,Africa proconsularis,13.4755338,32.4131762,1,
Younga / Bordj Yonga / Macomades Minores / Iunci / Sofiana,Africa proconsularis,10.4129676,34.4681813,3,
"Youssef, Hr.",Africa proconsularis,9.30167,35.1644,6,
"Zaaba, Djebel ez",Africa proconsularis,8.3833333,35.1333333,2,
Zaafrane,Africa proconsularis,8.9158323,33.4427896,3,
Zafran,Africa proconsularis,,,1,
"Zaga, Hr.",Africa proconsularis,9.02607049,36.924205,1,
Zaghouan / Zaghwan / Ziqua,Africa proconsularis,10.1446938,36.3995482,33,
"Zaieta, Hr. / Khalleg, Hr. / Thugga",Africa proconsularis,9.3496007,36.4057468,12,
"Zaktoun, Hr. / Zaktun / Thaca",Africa proconsularis,10.113359,36.280128,3,
Zallet,Africa proconsularis,,,1,
"Zama / Jama / Djama / Al-Jamah / el-Char, Hr. / ech-Char, Hr. / Ech-Char / Soualem, Hr. / El-Lehs / Nafidat el-Zawamil / Nafidat az-Zawamil / Zama Regia",Africa proconsularis,9.2858705,36.1121194,49,315267
Zanfour / Az Zunfur / Zannfour / Assuras,Africa proconsularis,9.01918303,35.9944104,29,
Zaouache,Africa proconsularis,,,2,
Zaouia Khdima / Zaouia Gdima / Zaouia Khedima / Zawiat el-Kedima / Pagus Mercurialis,Africa proconsularis,10.062114,36.556084,2,
Zaouia Mornag,Africa proconsularis,10.27278,36.69917,5,
Zaouia Sidi Medine,Africa proconsularis,,,3,
"Zaouiet Ben Ammar, Hr.",Africa proconsularis,,,1,
Zaouiet Djedidi / Sidi Djedid / Sidi Djedidi / Zaouiat Djedid / Zaouiat,Africa proconsularis,10.5746395,36.643429,1,
Zaouiet Gueisse,Africa proconsularis,,,1,
Zaouiet el-Laala / Zawiet el-Laala,Africa proconsularis,,,2,
Zaouit-Ksibat-Thrayett,Africa proconsularis,10.6281014,35.7780015,1,
Zarouel,Africa proconsularis,,,1,
Zarouria / Zaarouria,Africa proconsularis,7.9582241,36.2256214,5,
"Zarroug, Bir",Africa proconsularis,10.0233333,35.56,1,
Zarzis / Gergis,Africa proconsularis,11.1131197,33.5016452,3,
Zatria,Africa proconsularis,,,1,
Zawiyat Madyan / Vallis,Africa proconsularis,9.088944,36.767666,27,
Zawiyat Sidi 'Abdalli / Tuccabor,Africa proconsularis,9.483333,36.7,1,
"Zaytunat Bin Hassan / Zitounat Ben Hassane / Ben Hassen, Hr.",Africa proconsularis,10.2,34.849998,2,
Zebbes,Africa proconsularis,,,2,
Zebda,Africa proconsularis,9.95,34.6,1,
Zegera,Africa proconsularis,,,2,
"Zellal, Hr. / Ferme Eymard / Cooperative Khalled / Thugga",Africa proconsularis,9.2548291,36.4027067,6,
"Zembra / Zambrah, Jazirat / Ulisippira",Africa proconsularis,10.8033415,37.1296259,6,
Zemzouma,Africa proconsularis,7.531611,36.476162,1,
"Zengrou, Hr. / Zengru / Mechta en Naja / Ain Naja / Vicus Haterianus",Africa proconsularis,9.763611,36.325319,9,
Zerdud,Africa proconsularis,,,2,
Zerig,Africa proconsularis,10.1597937,33.71317,1,
Zezia,Africa proconsularis,8.349167,36.746389,3,
Zian / Zitha,Africa proconsularis,11.040121,33.475262,24,
Zinchera,Africa proconsularis,,,1,
Zitounet el-Taief / Zitounet et-Taief / Zeituna el-Taief,Africa proconsularis,,,1,
"Znad, Hr. ez",Africa proconsularis,8.957222,36.176388,4,
Zouabi / Zuabi,Africa proconsularis,,,1,
Zouarine / Az Zuwarin / Ain Zouarine / Ain Zuarin / Cella,Africa proconsularis,8.9046941,36.0215917,3,
"Zoubia, Hr. ez",Africa proconsularis,9.747222,36.138058,3,
"Zouitine, Hr. / Zouitina / Zuwaytinat el-Bey / Zuwaytinat al Bay / Gassa, Jebel el / Thibiuca",Africa proconsularis,9.90583,37.0364,8,
Zriba,Africa proconsularis,10.3048897,36.2932693,2,
Zumaylat al Ma'qil / Zmilet el Maguel / El Maguel,Africa proconsularis,8.7833333,33.2,1,
"el-Abiod, Hr. / Abiod / El-Abiod / Theveste",Africa proconsularis,7.516667,34.75,10,
"el-Amana, Hr. / Amana",Africa proconsularis,,,1,
"el-Atra, Hr.",Africa proconsularis,9.914167,35.005001,3,
"el-Attermine, Hr. / Borj el-Attermine",Africa proconsularis,9.8761,36.7767,1,
"el-Barud, Hr. / al-Barud, Hanshir / Thagumata",Africa proconsularis,9.9833,34.7667,33,
"el-Chlalig, Hr. / ech-Chlalig, Hr.",Africa proconsularis,,,1,
"el-Dekir, Hr. / Ed Dekir",Africa proconsularis,,,5,
"el-Hammadi, Hr. / Thugga",Africa proconsularis,9.2008346,36.3921176,4,
"el-Msaadine, Hr. / Msaadin, Hr. / Bordj el-Ioudhi / Bordj el-Youdi / Budja / Furni / Furnos Minus",Africa proconsularis,9.830048,36.693084,54,
"es-Souar, Hr. / Suwar, Hr. / Abthugni",Africa proconsularis,10.041051,36.174109,39,
"es-Zitouna, Hr. / Ferme ash-Shhid / Cooperative Cheidi / Thugga",Africa proconsularis,9.2751002,36.4124485,1,
"ez-Zaouia, Hr. / el-Zaouia, Hr. / Thugga",Africa proconsularis,9.2105217,36.4084156,13,